stop_id,stop_code,stop_name,stop_lat,stop_lon,zone_id
1162,"SMNA01","Smolna",52.4235503300,16.9651920800,A
420,"KRES02","Kresowa",52.4686397100,16.9474248100,A
3598,"LUPKM03","Luboń/PKM",52.3445773155,16.8917446829,B
355,"SUCH02","Sucholeska",52.4623384300,16.8688846200,A
3097,"KNKOS01","Konarzewo/Kościelna",52.3349070000,16.7112930000,C
1219,"SOBI02","Sobiesława",52.4053544600,17.0227539200,A
3662,"WOPO05","Wojska Polskiego",52.4292337530,16.8971459512,A
742,"OSTR02","Ostroroga",52.4003292800,16.8818442500,A
3990,"SZYD02","Szydłowiecka",52.3584470000,16.9453820000,A
2960,"KOKSW03","Komorniki/Ks.Wawrzyniaka",52.3473430700,16.8053317900,B
487,"SERB01","Serbska",52.4324932200,16.9466084200,A
3603,"KJCH02","Konopackiej",52.3564360000,16.8415590000,A
3695,"SOSN03","Sośnicka",52.4061170000,17.0439620000,A
2151,"TUKRO02","Tulce/Krótka",52.3426690000,17.0762610000,B
3194,"SKGRA01","Skórzewo/Os. Grafitowe",52.3952950000,16.7629260000,B
4337,"LITA03","Literacka",52.4408552438,16.8709660337,A
494,"POLA03","Połabska",52.4361636300,16.9308478800,A
4359,"RBPOL02","Robakowo/Polna",52.3020166489,17.0623273582,B
1391,"STAR30","Starołęka PKM",52.3661320000,16.9301820000,A
2134,"BRLAK01","Borówiec/Łąkowa",52.2829330000,17.0451850000,B
2659,"DZLES01","Dziećmierowo/Leśna",52.2709152500,17.0980362200,C
601,"LUPO02","Łupowska",52.4352823800,16.8301995000,A
1177,"JANZ01","Janikowska ",52.4321270000,17.0027201500,A
41,"KMIE71","Kmieca",52.4263321700,16.9384827300,A
1815,"PWSZK02","Pawłowice/Pętla",52.4952270100,16.7968397700,B
2239,"POOSI01","Poklatki/Osiedle",52.3300611123,17.2034834521,B
1928,"WYWIE03","Wysogotowo/Wierzbowa",52.4137947000,16.7773217100,B
1827,"KCJON01","Kicin/Jonschera",52.4576270600,17.0168938300,B
1313,"DAPIO01","Daszewice/Piotrowska",52.2993912300,16.9580540800,B
2111,"TUOSP01","Tulce/Przylesie",52.3461490600,17.0621922600,B
1161,"CHEM02","Chemiczna",52.4272314800,16.9667300600,A
1828,"KCJON02","Kicin/Jonschera",52.4574087500,17.0166881500,B
3224,"PADWR01","Palędzie/Dworzec Kolejowy",52.3745110000,16.7442250000,C
1646,"PANZ02","Porzeczkowa",52.3623172300,17.0144106500,A
29,"SZYM42","Szymanowskiego",52.4603710300,16.9169382500,A
2121,"SCNWO02","Szczytniki/Nad Wodą",52.3018330000,17.0164020000,B
146,"LOMZ42","Łomżyńska",52.4096310300,16.9851960400,A
2344,"GROKR01","Gruszczyn/Okrężna",52.4397720000,17.0749180000,B
4352,"KDCEL01","Kórnik/Celichowskiego",52.2399434189,17.0996492360,C
953,"WIBRZ01","Wiry/Brzoskwiniowa",52.3296370124,16.8363890627,B
768,"SZAM01","Szamotulska",52.4046890900,16.8832369900,A
2407,"BOPAL01","Bolechowo/Pałac",52.5442364500,16.9905190200,C
4381,"TPMOD02","Tarnowo Pdg/Modrakowa",52.4758330000,16.6568830000,C
2109,"PRNA02","Przyjemna",52.3505610900,17.0412050800,A
3071,"LURZE01","Luboń/Rzeczna",52.3469947162,16.9015437050,B
1696,"ROSK41","Rondo Skubiszewskiego",52.3905040000,16.8545990000,A
2059,"LKADM01","Lusówko/Admiralska",52.4423930900,16.6340187400,C
1874,"RKLES02","Rokietnica/Leśna",52.5051000000,16.7364000000,B
3994,"SWWA01","Św. Wawrzyńca",52.4186898429,16.9026800374,A
4084,"WSKA01","Wieruszowska",52.3819690837,16.8443876620,A
2840,"BRZE03","Brzechwy",52.4074138036,16.8458929335,A
3816,"ROWIC01","Rosnówko/Wichrowa",52.3066573524,16.7624684276,C
3050,"KANKA01","Kamionki/Nad Kople",52.2892567218,17.0003013193,B
2212,"KZZON04","Koziegłowy/Żołnierzy Niezłomnych",52.4474612933,16.9847763626,B
3971,"RBPRZ02","Robakowo/Przyjazna",52.2977998681,17.0646295381,B
3892,"UNLU01","Unii Lubelskiej",52.3723874700,16.9496976300,A
485,"SERB04","Serbska",52.4313437400,16.9475532400,A
620,"OGDY01","Ogrody",52.4169067600,16.8818094600,A
33,"ARPO42","Armii Poznań",52.4213487500,16.9235154600,A
4006,"JROL41","Jasna Rola",52.4517717915,16.9449456990,A
1537,"KRSZ01","Krzesiny Szkoła",52.3411399600,16.9924082900,A
2144,"TULES02","Tulce/Leśna",52.3440963600,17.0730848500,B
4121,"SKOGR02","Skórzewo/Ogrodowa",52.3946060000,16.7878960000,B
3942,"GWSNI01","Gowarzewo/Śnieżna",52.3515675715,17.1073969568,B
1783,"COSZK01","Chomęcice/Szkoła",52.3336658300,16.7407826600,C
1898,"ZYPET02","Żydowo/Pętla",52.5472268800,16.7512925000,B
1714,"POGL42","Poznań Główny",52.4029387600,16.9149992700,A
99,"ARCI42","Arciszewskiego",52.3926985000,16.8869293500,A
743,"OSTR01","Ostroroga",52.4007473900,16.8824578700,A
1379,"SWAK01","Św. Antoniego Kościół",52.3639227300,16.9327687900,A
1412,"OBII01","Os. Orła Białego II",52.3760766600,16.9603524000,A
1687,"UE42","Uniwersytet Ekonomiczny",52.4064200000,16.9171400000,A
282,"ZLLAG02","Złotniki/Łagiewnicka",52.4914781500,16.8466062100,B
4116,"SKCYT01","Skórzewo/Cytrynowa",52.3985080000,16.7830950000,B
3927,"PKLES01","Pokrzywnica/Leśna",52.3967565581,16.6721816548,C
3314,"GVOSI02","Gaj Wielki/",52.4602940000,16.5752840000,C
884,"PURON02","Puszczykowo/Rondo Heigelmanna",52.2812281400,16.8512104300,C
1276,"CZEK02","Czekalskie",52.4048195500,16.9843631500,A
636,"ZGOR01","Zgorzelecka",52.4120717800,16.8580344800,A
329,"SLPRO02","Suchy Las/Promienista",52.4781626300,16.8604308500,B
3096,"TRCZI01","Trzek/Czereśniowa",52.3587731427,17.1524222827,B
1323,"GLSZ01","Głuszyna Szkoła",52.3139840300,16.9648432500,A
2569,"MGOKR02","M. Goślina/Okrężna",52.5843184400,17.0176234700,C
3113,"CEPKM03","Czerwonak/PKM",52.4687487106,16.9796259730,B
872,"MORZM01","Mosina/Rzeczypospolitej Mosińskiej",52.2510109700,16.8514883300,C
997,"SYCO01","Sycowska I",52.3643997500,16.8389831500,A
1932,"PMBRZ02","Przeźmierowo/Brzozowa",52.4198320000,16.7748030000,B
1424,"BIEL02","Bielniki",52.3944250900,16.9335446300,A
4345,"SUSZK02","Słupia Wielka/Szkoła",52.2207708088,17.2131053834,C
433,"RDWA01","Rdestowa",52.4899311000,16.9417111700,A
2025,"TPKAR02","Tarnowo Pdg/Karolewo III",52.4747929644,16.7019329026,C
729,"ROSK01","Rondo Skubiszewskiego",52.3899356513,16.8529470488,A
1934,"PMOLS91","Przeźmierowo/Kasztanowa",52.4181070000,16.7795200000,B
1807,"POGL00","Poznań Główny",52.4029221300,16.9138638200,A
933,"LUWPL04","Luboń/Wojska Polskiego",52.3430438212,16.8745668792,B
733,"BULG04","Bułgarska Enea Stadion",52.3949771300,16.8620319900,A
3920,"DEDAB02","Dębogóra/Dąbrówki",52.4985212224,17.0828698864,C
1008,"FABI01","Fabianowo",52.3653535900,16.8558235000,A
2320,"ZNNSW01","Zimin/Nowy Świat Centrum",52.2989001200,17.1753768100,B
4213,"PLZAK01","Plewiska/Zakładowa",52.3691330375,16.8304860373,B
1019,"OSIA02","Ostatnia",52.3729373400,16.8664989900,A
516,"RZEP02","Rzepeckiej",52.4549770000,16.8826823700,A
4369,"DZOWW01","Dziećmierowo/Owocowe Wzgórze",52.2687500619,17.0798741011,C
703,"ZKSWI01","Zakrzewo/Świerkowa",52.3984719500,16.7163313800,C
2493,"JSRJE01","Swarzędz/Rabowicka",52.4015320000,17.0853810000,B
4067,"KOTW01","Kotwicza",52.3553193046,16.9322837096,A
3395,"PPDWO30","Pobiedziska/Dworzec",52.4794874815,17.2769318451,C
339,"LEWI02","Łęgowskiego Wiadukt",52.4631964400,16.8893035600,A
4355,"PZJAG01","Pierzchno/Jagrol",52.2681175471,17.1474489839,C
3953,"TPMOD01","Tarnowo Pdg/Modrakowa",52.4752240000,16.6557620000,C
1836,"KISTA02","Kiekrz/Starzyńska",52.4969236000,16.7690681300,B
945,"WILAS04","Wiry/Laskowska",52.3150707727,16.8630559797,B
3819,"UZKOL02","Uzarzewo/ Przejazd Kolejowy",52.4558389312,17.1201474916,C
1318,"BBOSZ02","Babki/Ośrodek Zdrowia",52.3134674000,16.9362469600,B
4015,"TLLZA02","Trzcielin/Leśne Zacisze",52.3276247381,16.6732146842,C
1877,"NASTA01","Napachanie/Starzyńska",52.4892960000,16.7314650000,B
948,"WIKOS01","Wiry/Kościół",52.3196740061,16.8542752295,B
362,"HULE01","Hulewiczów",52.4565911000,16.8979252100,A
1230,"KOBY01","Kobylepole",52.3908454600,17.0182072300,A
799,"URWO01","Urząd Wojewódzki",52.4111032500,16.9190324100,A
1771,"KOWI02","Kowalewicka Wiadukt",52.3623529459,16.8536996845,A
2551,"PLL03","Port Lotniczy Ławica",52.4142302500,16.8284017000,A
2663,"SCOGR01","Szczodrzykowo/Ogrodowa",52.2830122500,17.1066191200,C
777,"MARS02","Marszałkowska",52.4004990000,16.8639220000,A
2603,"KDREJ01","Kórnik/Reja",52.2529472800,17.0821979700,C
429,"UMTA01","Umultowo",52.4819694900,16.9436187200,A
3677,"PRSOS01","Promnice/Sosnowa",52.5446193700,16.9658866800,C
1900,"ZYPET03","Żydowo/Pętla",52.5470043500,16.7510458300,B
4434,"WINO02","Winogronowa",52.3584520000,17.0313290000,A
325,"SLPRZ02","Suchy Las/Os. Przylesie",52.4733187600,16.8979097800,B
2571,"PDPAR01","Przebędowo/Park",52.5859934800,17.0148795000,C
2736,"RBSKO01","Robakowo/Szkolna Rondo",52.3088719400,17.0704373300,B
4373,"KDRAD01","Kórnik/Bnin Radosna",52.2281333469,17.0805234339,C
4293,"KRPOS01","Krosno/Piaskowa/Os. Miodowe",52.2259084334,16.8266785860,C
3926,"GSSTA01","Gołuski/Starowiejska",52.3548954469,16.7507214072,C
2403,"LWJUT01","Lusowo/Jutrzenki",52.4430280000,16.6908610000,C
2143,"KAPOL02","Kamionki/Polna",52.2860552600,16.9886908500,B
2317,"SRDWA01","Śródka/II",52.2976996200,17.1319911100,B
4318,"LDSZP01","Ludwikowo/Szpital",52.2456755063,16.8124522948,C
1580,"TRAU01","Traugutta",52.3855467800,16.9138131100,A
2465,"SDSKA02","Swarzędz/Skansen",52.4043860000,17.0579910000,B
1489,"OSLE02","Os. Lecha",52.3895226900,16.9791244300,A
1024,"LESZ01","Leszczyńska",52.3762098000,16.8788445100,A
1293,"BRSZK01","Borówiec/Szkoła",52.2773756200,17.0473616100,B
1113,"SLKA03","Słowiańska",52.4273333500,16.9192608700,A
1022,"SMIE02","Śmiełowska",52.3732651000,16.8767426500,A
1984,"LWPRZ01","Lusowo/Przylesie",52.4147719400,16.7183908600,C
2667,"RNWIE01","Runowo/Wieś",52.2817055932,17.1211805210,C
519,"TULO01","Tułodzieckiej",52.4524763700,16.8871356900,A
2654,"DZPOL02","Dziećmierowo/Polna",52.2591888000,17.0961217700,C
2780,"PTJOD01","Potasze/Jodłowa",52.5244519700,17.0299407900,C
1626,"GLHE72","Głogowska/Hetmańska",52.3906050800,16.8948032700,A
1149,"STUD02","Studzienna",52.4195420100,16.9646698600,A
1298,"BRBOR02","Borówiec/Borówkowa",52.2821272100,17.0141312700,B
3104,"KNPER01","Konarzewo/Perłowa",52.3406622893,16.6989813899,C
3715,"DHOKE01","Dachowa/Okrężna",52.3038408100,17.0980993300,B
1277,"CZEK01","Czekalskie",52.4047970400,16.9844423300,A
18,"SWLE41","Św. Leonarda",52.4328200000,16.9113300000,A
2385,"SDCYB01","Swarzędz/Cybińska",52.4168250000,17.0885780000,B
2140,"KXPIS01","Koninko/Pisarska",52.3068920832,17.0139077927,B
2368,"BWJOD02","Bolechówko/Jodłowa",52.5189228700,16.9948277800,C
2755,"SYLAK02","Skrzynki/Łąkowa",52.2681265831,17.0684074743,B
4093,"LEZI02","Leśniczówka Zieliniec",52.4216700000,17.0641960000,A
4186,"LUKRE03","Luboń/Kręta",52.3207751007,16.8810749646,B
30,"SZYM41","Szymanowskiego",52.4603958500,16.9171552600,A
1935,"PMCME01","Przeźmierowo/Cmentarz",52.4168795000,16.7870727600,B
534,"LUDO01","Lutycka/Dojazd",52.4408641700,16.9009890200,A
4363,"CMLIP02","Czmoń/Lipowa",52.1861215573,17.0516281247,C
3520,"WROB01","Wróblewskiego",52.3640766000,16.8840697000,A
35,"ZNIW42","Żniwna",52.4247660000,16.9268332600,A
1248,"SDKUP02","Swarzędz/Kupiecka",52.3977470000,17.0721820000,B
1052,"SJNZ01","Sempołowskiej",52.3628655300,16.8913227000,A
1345,"RYDZ01","Rydzowa",52.3343571500,16.9119543700,A
462,"SARM01","Sarmacka",52.4470172200,16.9277737600,A
2440,"PKSTA02","Paczkowo/Ogrodowa",52.3976960000,17.1589030000,C
3952,"RRAT74","Rondo Rataje",52.3966530000,16.9510250000,A
815,"DEEC02","Dębiec PKM",52.3710025600,16.9016160500,A
1759,"KOKSW01","Komorniki/Ks.Wawrzyniaka",52.3471480900,16.8034285300,B
3300,"GRDLI01","Góra/Długa I",52.4827227400,16.6443198100,C
1563,"KOZAK01","Komorniki/Zakładowa Wirenka",52.3352858900,16.8083921300,B
4260,"WIPII02","Wiry/PKM II",52.3148900000,16.8685900000,B
2868,"RYWI72","Rynek Wildecki",52.3930533961,16.9207137799,A
2196,"MWKOL02","Miękowo/Kolejowa",52.4978361500,16.9766955800,C
2162,"TUZDB02","Tulce/Zadęby",52.3452274300,17.0917709200,B
1225,"PIWN01","Piwna",52.3926936100,17.0148841400,A
831,"DENZ02","Dębina",52.3776519000,16.9268052800,A
2228,"GWTAN02","Tanibórz/Wschód",52.3513575600,17.1469431400,B
262,"ZILAS02","Zielątkowo/Las",52.5462284100,16.8001455900,C
2421,"LOLIP01","Łowęcin/Lipowa",52.4139550000,17.1214930000,C
3576,"GSKA01","Głuchowska",52.3716286000,16.8747210000,A
4200,"TPSEZ01","Tarnowo Pdg/Sezamkowa",52.4733190000,16.6516740000,C
1303,"KALOT01","Kamionki/Lotnicza",52.2851072300,16.9993703300,B
1742,"PLSTP01","Plewiska/Straż Pożarna",52.3653270100,16.8079950400,B
876,"PUMAJ01","Puszczykowo/3 Maja",52.2720650500,16.8685220900,C
906,"LUKOS01","Luboń/Kościół",52.3308280912,16.8772084830,B
2371,"PTCED01","Potasze/Cedrowa",52.5221028900,17.0163732400,C
431,"LOPI01","Łopianowa",52.4868020500,16.9426238300,A
1925,"WYPKN02","Wysogotowo/Piękna",52.4059193300,16.7861267700,B
332,"SLJAG01","Suchy Las/Os. Jagodowe",52.4712284700,16.8684930200,B
1533,"JARO01","Jarosławska",52.3431891600,16.9853661000,A
234,"RSTA42","Rondo Starołęka",52.3810055800,16.9435005400,A
49,"ROSO41","Rondo Solidarności",52.4339826300,16.9379315500,A
4096,"SMIG01","Śmigi",52.3476261050,16.9662261054,A
3885,"UNLU42","Unii Lubelskiej",52.3725317100,16.9500370600,A
2488,"WZMEH01","Wierzenica/Mechowo",52.4407420000,17.0559040000,B
2283,"KFDWR02","Karłowice/Dwór",52.4948070000,17.1013400000,C
1397,"STMA02","Starołęka Mała",52.3761813600,16.9399001600,A
2824,"ZAOSL92","Zalasewo/Os. Leśne",52.3835102401,17.0603498447,B
739,"GROC02","Grochowska",52.3991410000,16.8773100000,A
205,"Z II41","Żegrze II",52.3807026800,16.9659212900,A
1466,"PILS01","Piłsudskiego",52.3917749100,16.9530540900,A
1236,"BORO02","Borówki",52.3896073900,17.0315419500,A
2268,"KYBRZ01","Kliny/Brzozowa",52.4895432400,17.0596249800,C
4397,"NAWS02","Naramowice Wschodnie",52.4453193858,16.9610609582,A
2285,"KFPET02","Karłowice/Pętla",52.4973890300,17.1066667200,C
399,"STOI02","Stoińskiego",52.4502145200,16.9271609000,A
1983,"LWPRZ02","Lusowo/Przylesie",52.4147259600,16.7183040000,C
4148,"CEELE03","Czerwonak/Elewator",52.4860068134,16.9779583683,B
4454,"KATE92","Katedra",52.4099970000,16.9473100000,A
58,"OGDY41","Ogrody",52.4170536400,16.8824626700,A
3140,"ROLW03","Rondo Ławickich Wydm",52.3979458289,16.8029336665,A
973,"LUSZN01","Luboń/Szkolna",52.3427641783,16.8681030664,B
2137,"KXDZI02","Koninko/Dziennikarska",52.3090730000,17.0162780000,B
1813,"WISE04","Wilczak/Serbska",52.4307468300,16.9515943800,A
564,"KRAJ02","Krajenecka",52.4547254800,16.8432035500,A
3589,"KOJEZ04","Komorniki/Jeziorna",52.3289512252,16.8038191203,B
2518,"RASKL01","Rabowice/Składowisko",52.3802360000,17.1116670000,C
1003,"KRKA02","Krzepicka",52.3767922500,16.8417003600,A
412,"OSZY02","Os. Zygmunta Starego",52.4602850600,16.9083573400,A
605,"KOLO02","Kołobrzeska",52.4310730000,16.8385071200,A
161,"KORN44","Kórnicka",52.3991553500,16.9533801200,A
780,"WOPO02","Wojska Polskiego",52.4275206900,16.8978431400,A
2862,"GWTRU01","Gowarzewo/Truskawkowa",52.3667165500,17.1417408500,B
4245,"PLMIE02","Plewiska/Miętowa",52.3736400000,16.8124400000,B
1028,"RAKO02","Rakoniewicka",52.3779337800,16.8811918100,A
2463,"SDPIA02","Swarzędz/Piaski",52.4076060000,17.0759670000,B
67,"BUKO41","Bukowska",52.4100521300,16.8888257200,A
2767,"RODWO02","Rosnówko/Dworcowa",52.2973100000,16.7669900000,C
4385,"GOKA02","Golęcińska",52.4333830000,16.8840260000,A
794,"STRO01","Stróżyńskiego",52.4524870400,16.9032391400,A
301,"SLSZK01","Suchy Las/Szkoła",52.4763622500,16.8722816600,B
662,"OWCZ01","Owcza",52.4069715800,16.8189420200,A
715,"ZONK02","Żonkilowa",52.3868266982,16.8182520173,A
2293,"KXZDB02","Komorniki gm.Kleszczewo/Zadęby",52.3419896800,17.1120038000,B
1062,"OSKO01","Os. Kopernika",52.3855792700,16.8635917600,A
3079,"MGPOZ02","M. Goślina/Poznańska",52.5730662799,17.0095838266,C
4361,"CMOSR01","Czmoń/Os. Radosne",52.1881493143,17.0502409138,C
1441,"URMA01","Urząd Marszałkowski",52.4152812800,16.9267934100,A
1181,"JANI01","Janikowo",52.4364344700,17.0183890100,A
2327,"MAAUT01","Markowice/Autostrada",52.3120691700,17.2321514000,B
3024,"SFSII02","Świątniki/II",52.2265325057,16.9593933535,C
197,"BYST41","Bystra",52.3709991833,16.9345268592,A
4315,"ZBZBI02","Żabinko/I",52.1983229128,16.8769280893,C
1085,"KRAU71","Krauthofera",52.3875876200,16.8913676500,A
3802,"MWOGR01","Miękowo/Ogrodowa",52.4967773301,16.9839942117,C
64,"RJEZ74","Rynek Jeżycki",52.4122250800,16.9056406100,A
4306,"MORZM03","Mosina/Rzeczypospolitej Mosińskiej",52.2504757858,16.8511171109,C
3620,"JKJAN01","Jankowo/",52.4446623933,17.1689359962,C
2956,"GLMOR02","Głuchowo/Morelowa",52.3449110690,16.7636785478,C
2842,"JAWO02","Jawornicka",52.3878030000,16.8580220000,A
83,"MATE71","Matejki",52.4057875800,16.9009328700,A
2112,"KMRYN01","Kaźmierz/Rynek",52.5132944400,16.5831383400,C
3831,"FRWO04","Franowo",52.3815600000,17.0000700000,A
3070,"LURZE02","Luboń/Rzeczna",52.3466790183,16.9014699172,B
3534,"WYDLU03","Wysogotowo/Długa",52.4102870100,16.7793864100,B
258,"ZIOSP02","Zielątkowo/OSP",52.5599872100,16.7977223800,C
1300,"KALIS01","Kamionki/Lisia",52.2840455900,17.0066226900,B
1246,"SDRAC01","Swarzędz/Os. Raczyńskiego",52.3991040000,17.0647120000,B
4174,"LACI42","Łacina",52.3946600000,16.9660600000,A
2498,"JSRCZ01","Jasin/Rabowicka II",52.3986160000,17.1053770000,B
1016,"URAD01","Uradzka",52.3558237000,16.8589186200,A
2077,"CDOKR01","Ceradz Dolny/Okrężna",52.4259392600,16.5774834100,C
1595,"ZNTK02","ZNTK",52.3922926000,16.9138117600,A
1552,"SPKA01","Spławska",52.3574831700,16.9996995800,A
2396,"JADZ02","Jaryszki/Działki",52.3337244446,17.0190434248,B
767,"SZAM02","Szamotulska",52.4044515900,16.8803991000,A
3048,"SCSZC01","Szczytniki/Szczelinka",52.2936820244,17.0041530433,B
1522,"RODA02","Rodawska",52.3630699200,16.9967864700,A
3716,"DHOKE02","Dachowa/Okrężna",52.3040413400,17.0977596500,B
3013,"REMOS02","Rogalinek/Mostowa",52.2496802951,16.8986364651,C
2388,"GTCME01","Gortatowo/Cmentarz",52.4206330000,17.0955250000,B
1222,"ZIEM01","Ziemowita",52.4031248000,17.0203630400,A
723,"JUNI30","Junikowo",52.3835469700,16.8335096200,A
4080,"LAUD02","Laudańska",52.3944860431,16.8374220921,A
1322,"DASZ02","Daszewicka",52.3181933900,16.9540910700,A
224,"POKA41","Polanka",52.3967500000,16.9625600000,A
1430,"PLBE02","Pl. Bernardyński",52.4040241900,16.9370262300,A
2661,"SCPKM01","Szczodrzykowo/Kórnik PKM",52.2810362700,17.1047215800,C
2958,"BRKUR01","Borówiec/Kurkowa",52.2812629632,17.0204601509,B
4014,"PAWRZ01","Palędzie/Wrzosowa",52.3727380000,16.7264910000,C
171,"AWF42","AWF",52.3996550000,16.9355200000,A
256,"ZIPOG01","Zielątkowo/Pogodna",52.5600237900,16.8069706400,C
2726,"JNPOZ01","Jankowice/Poznańska",52.4435338100,16.6335564600,C
1014,"KOTO01","Kotowo",52.3592800000,16.8536500000,A
2848,"TRZE04","Trzebińska",52.3675406400,16.8408455400,A
451,"BORA01","Boranta",52.4565857324,16.9513652391,A
3975,"SCSZK03","Szczodrzykowo/Szkoła",52.2859329386,17.1017595676,C
4405,"LUKOM02","Luboń/Komornicka",52.3400127584,16.8603405881,B
2677,"CLWIE01","Czołowo/Wieś",52.2405853772,17.0411207396,C
13,"BONN42","Bonin",52.4302063000,16.9106352900,A
1555,"OLIW02","Oliwkowa",52.3596445700,17.0199592400,A
192,"DEEC41","Dębiec PKM",52.3728856000,16.9031857800,A
2880,"KVWIA02","Krzyżowniki/Wiadukt",52.3109020000,17.1405273400,B
756,"POLN02","Polna Szpital",52.4092260700,16.8907428300,A
2301,"KEPAL02","Krerowo/Pałac",52.2954916400,17.1947686100,B
2507,"SDFIE02","Swarzędz/Pogodna/Średzka",52.4004940000,17.0842360000,B
418,"UAMG01","UAM Wydział Geografii",52.4641879876,16.9410792174,A
820,"MALI01","Malinowa",52.3694780000,16.9099020000,A
92,"RYLA71","Rynek Łazarski",52.3939634477,16.8985036470,A
2499,"JSEKO01","Jasin/Rabowicka Pętla",52.3980640000,17.1091890000,B
2623,"BJMDW02","Błażejewo/Mikołajczyka II",52.2111895600,17.1010103000,C
3152,"BRKA02","Brneńska",52.3935290000,16.9632550000,A
135,"ROSR44","Rondo Śródka",52.4095004300,16.9564208700,A
1414,"SZII02","Os. Stare Żegrze",52.3806136000,16.9567160600,A
4169,"JUST02","Junikowo PKM",52.3775800000,16.8235800000,A
3584,"KOPOE01","Komorniki/Os. Poetów ",52.3224300000,16.8055100000,B
2454,"PKALT01","Paczkowo/Altanowa",52.4065470000,17.1656140000,C
1786,"COSRD02","Chomęcice/Środkowa",52.3315679200,16.7465379500,C
3069,"LUSRY01","Luboń/Strumykowa",52.3444420093,16.8984003440,B
57,"PIAT42","Piątkowska",52.4414917400,16.9105875300,A
1273,"ZOO02","Nowe Zoo",52.4003671000,16.9928965800,A
766,"MARC04","Marcelińska",52.4048603400,16.8755535000,A
992,"SYCH01","Sycowska Centrum Handlowe",52.3541640000,16.8385760000,A
4128,"WIMO02","Wilków Morskich",52.4779766571,16.7811219878,A
1693,"BUDZ41","Budziszyńska",52.3885462000,16.8497230600,A
2339,"UZSKR03","Uzarzewo/Skrzyżowanie",52.4603310000,17.1127990000,C
2754,"SYLES02","Skrzynki/Leśna",52.2744964970,17.0603793598,B
1053,"SJNZ02","Sempołowskiej",52.3633000000,16.8920210000,A
1536,"KRNY02","Krzesiny",52.3412578600,16.9881387800,A
3813,"COWSP02","Chomęcice/Wspólna",52.3293482600,16.7644016700,C
1757,"KOKSM01","Komorniki/Ks.Malinowskiego",52.3392363200,16.8004527700,B
1647,"TEMA01","Termy Maltańskie",52.4055228300,16.9759399300,A
2090,"GRCIE02","Góra/Ciepła",52.4755622700,16.6422255900,C
600,"BRAN02","Braniewska",52.4351872600,16.8231796800,A
3672,"BEPRZ01","Biskupice/Przylesie",52.4582520000,17.1668680000,C
2035,"TPCEN01","Tarnowo Pdg/Centrum",52.4642600000,16.6650100000,C
2066,"LKDOP02","Lusówko/Dopiewska",52.4283745700,16.6455222800,C
2856,"GWTRZ02","Gowarzewo/Trzecka",52.3606316000,17.1377200300,B
588,"STOB01","Stobnicka",52.4539974300,16.8010815400,A
438,"BIMLY01","Biedrusko/Młyn",52.5148237600,16.9394120800,B
2248,"NGOZD02","Nagradowice/Ośrodek Zdrowia",52.3206873800,17.1474324600,B
4008,"OLOK41","Os. Łokietka",52.4482262351,16.9450932746,A
4074,"GRZIE02","Gruszczyn/Zielińska",52.4276851898,17.0649984772,B
3735,"SDWWN01","Swarzędz/Warzywna",52.3953870600,17.0769963800,B
1765,"PLSZK01","Plewiska/Szkoła Nr 1",52.3632100000,16.8070200000,B
2210,"KZZON01","Koziegłowy/Żołnierzy Niezłomnych",52.4464440500,16.9837328800,B
2477,"SDDWO01","Swarzędz/Dworzec Kolejowy",52.4046730000,17.0751530000,B
1517,"LUGA02","Ługańska",52.3714685400,16.9954669000,A
302,"SLKOS01","Suchy Las/Kościół",52.4731420800,16.8772196700,B
1618,"CMEN02","Gnieźnieńska Cmentarz",52.4255898600,16.9946559500,A
1311,"DAPET01","Daszewice/Pętla",52.2957547000,16.9627815600,B
2079,"CDPAR01","Ceradz Dolny/Parkowa",52.4211889100,16.5714042800,C
243,"CHSZK02","Chludowo/Szkoła",52.5561078600,16.8443741700,C
2022,"NAKOK02","Napachanie/Kokoszczyńska",52.4837319011,16.7188007976,B
160,"KORN43","Kórnicka",52.3990164300,16.9534845600,A
1653,"PUST02","Pusta",52.4102556400,16.9958114800,A
70,"RONJ41","Rondo Nowaka-Jeziorańskiego",52.4023512573,16.8882176253,A
3904,"UNLU04","Unii Lubelskiej",52.3721440700,16.9504207500,A
2596,"SWKI01","Świątniczki",52.3357163000,17.0105503100,A
1823,"CECME01","Czerwonak/Cmentarz",52.4581666900,16.9955009300,B
4426,"FIEL01","Fieldorfa",52.4438163885,16.8599568914,A
2906,"PRPLN05","Promnice/Północna",52.5417574700,16.9659340400,C
63,"PONA71","Polna",52.4142148300,16.8972021400,A
978,"LUPBO02","Luboń/Pl. Bojanowskiego",52.3497457016,16.8614916780,B
2619,"KDWIE02","Kórnik/Bnin Wierzbowa",52.2233181500,17.0961273300,C
1317,"BBJDW01","Babki/Jednostka Wojskowa",52.3115864386,16.9379506139,B
4003,"BLAZ42","Błażeja",52.4552270846,16.9446653053,A
533,"LUTY02","Lutycka",52.4387976400,16.8957417100,A
1027,"RAKO01","Rakoniewicka",52.3775167500,16.8803468800,A
1370,"ROMI01","Rondo Minikowo",52.3549535600,16.9429748500,A
1475,"LI01","Os. Lecha I",52.3878126200,16.9678225400,A
2355,"SIDWA02","Sierosław/Okrężna ",52.4049840000,16.6662100000,C
1184,"JAOGR01","Janikowo/Ogrodnicza",52.4436050000,17.0324690000,B
353,"STRS02","Strzeszyn PKM",52.4619623700,16.8667445600,A
3196,"KOLAK02","Komorniki/Łąkowa ",52.3322627573,16.8136328999,B
2167,"BOWOJ02","Bolechowo-Os./Wojska Polskiego",52.5414489600,16.9725434600,C
1408,"OB I01","Os. Orła Białego I",52.3754060900,16.9651236900,A
1155,"GLOW03","Główna",52.4223130200,16.9767435600,A
2102,"BZZNO01","Brzezno/",52.4912558700,16.6223832000,C
1869,"MRGNI02","Mrowino/Gniewka",52.5149710000,16.7195990000,B
2466,"SDZUR01","Swarzędz/Armii Poznań/Żurawia",52.3951720000,17.0593690000,B
2475,"SDPLD01","Swarzędz/Południowa",52.4017540000,17.0805000000,B
2049,"JNPET01","Jankowice/Pętla",52.4393913900,16.6206655700,C
681,"DKPAR01","Dąbrówka/Parkowa",52.3852800000,16.7447500000,C
1949,"PMWIA01","Przeźmierowo/Wiadukt",52.4356255021,16.7863609228,B
1258,"CHAR01","Chartowo",52.3958560000,16.9835090000,A
1852,"RKKAL02","Rokietnica/Os. Kalinowe",52.5042358400,16.7433414100,B
1335,"CZGLU01","Czapury/Głuszynka",52.3180093000,16.9129402900,B
1393,"STAR04","Starołęka PKM",52.3687272200,16.9333491400,A
1651,"SOLN01","Solna",52.4116894100,16.9286558400,A
4326,"DNDYM01","Dymaczewo Nowe/",52.2297069989,16.7599891570,C
1550,"OSNZ01","Ostrowska",52.3518593400,17.0028203800,A
1937,"PMKRA02","Przeźmierowo/Krańcowa",52.4210581653,16.7876891035,B
2670,"PZPZI01","Pierzchno/I",52.2711896772,17.1444679560,C
4114,"SKWIO01","Skórzewo/Wiosenna",52.3991530000,16.7823240000,B
4214,"PLJAR02","Plewiska/Jarzębinowa",52.3717300000,16.8321700000,B
1821,"TURY02","Turystyczna",52.4826084600,16.7803631700,A
589,"SLUP01","Słupska",52.4483028600,16.8043734200,A
3925,"DPPOR01","Dopiewiec/Poranek",52.3741050000,16.7174770000,C
860,"KKKRO01","Krosinko/",52.2338088800,16.8148953900,C
2953,"OSSM02","Os. Śmiałego",52.4553900000,16.9185800000,A
1596,"ZNTK01","ZNTK",52.3920746900,16.9133832500,A
1993,"SIPRO01","Sierosław/Prosta",52.4026089100,16.6700099800,C
162,"KORN45","Kórnicka",52.3998253300,16.9528595100,A
2083,"GBWIE02","Grzebienisko/Wierzbowa",52.4330965400,16.5304299400,C
2389,"GTDOZ01","Gortatowo/Dożynkowa",52.4245940000,17.1025960000,B
3676,"MALI02","Malinowa",52.3695900000,16.9109900000,A
963,"KOWIR02","Komorniki/Wirowska",52.3410772624,16.8396947569,B
3828,"FONA01","Folwarczna",52.3886700000,17.0093500000,A
2711,"PEPET01","Pętkowo/",52.2109009224,17.2551496815,C
813,"DEEC09","Dębiec PKM",52.3719292500,16.9036505400,A
3707,"KXMAG01","Koninko/Magazynowa",52.3155122200,17.0309845800,B
2308,"ZNNWS02","Zimin/Nowy Świat",52.2921395800,17.1716425200,B
625,"SZPI02","Szpitalna",52.4121991900,16.8769750800,A
484,"WISE02","Wilczak/Serbska",52.4309139700,16.9539992500,A
2253,"KXOSP02","Komorniki gm.Kleszczewo/OSP",52.3305061600,17.1114584500,B
439,"BIMLY02","Biedrusko/Młyn",52.5150853900,16.9394324400,B
1438,"WIKA02","Wielkopolska",52.4155811900,16.9180060800,A
2266,"KYCME01","Kliny/Cmentarz Ewangelicki",52.4855072300,17.0566298700,C
2859,"GWNOW02","Gowarzewo/Nowa",52.3618894800,17.1324582700,B
2183,"OWKSP02","Owińska/Ks. Piotrowskiego",52.5172277800,16.9745642100,C
677,"DBLES01","Dąbrowa/Poprzeczna",52.3921480000,16.7499490000,C
1745,"PLBOI01","Plewiska/Boisko",52.3683306607,16.8008823651,B
2640,"PSPLD02","Prusinowo/Południe",52.1921531300,17.1307352400,C
635,"ZGOR02","Zgorzelecka",52.4117833700,16.8583160600,A
3102,"KNSEZ01","Konarzewo/Sezamkowa",52.3376130196,16.7040137190,C
2742,"RBSZE01","Robakowo/Szeroka",52.3073130000,17.0746050700,B
47,"OPL41","Os. Pod Lipami",52.4310010800,16.9364029400,A
1157,"BALA03","Bałtycka",52.4266050100,16.9774817000,A
4072,"ROSK04","Rondo Skubiszewskiego",52.3908547782,16.8534635635,A
1138,"ROSR30","Rondo Śródka",52.4094390300,16.9544934700,A
2553,"MGLES01","M. Goślina/Leśna",52.5646904900,16.9895134800,C
3015,"RESKR01","Rogalinek/Skrzyżowanie",52.2492735046,16.9000679487,C
2069,"LKGRA01","Lusówko/Grabowa",52.4334361600,16.6394221600,C
3035,"MOSSZ01","Mosina/Sowiniecka/Szkoła",52.2427824317,16.8564593489,C
3891,"UNLU02","Unii Lubelskiej",52.3720359000,16.9498156900,A
1870,"MRLES01","Mrowino/Leszka",52.5138490000,16.7248840000,B
4176,"PERK02","Perkoza",52.4245060000,17.0649930000,A
1777,"KONOW01","Komorniki/Nowa",52.3392549602,16.8157284739,B
3710,"KDBWI01","Kórnik/Bnin Witosa",52.2265947600,17.0917649000,C
1485,"KUWI01","Kurlandzka Wiadukt",52.3817257383,16.9784453679,A
1694,"BUDZ42","Budziszyńska",52.3884567400,16.8498179200,A
1425,"AWF03","AWF",52.3987909900,16.9367852400,A
1191,"KZTJE02","Koziegłowy/Taczaka I",52.4479848100,17.0008845100,B
1432,"MOST01","Mostowa",52.4048703800,16.9396370600,A
2561,"MGCME02","M. Goślina/Cmentarz",52.5712143600,17.0078878300,C
1584,"TOKA04","Tokarska",52.3772171100,16.9128203100,A
4215,"PLPII02","Plewiska/Południowa II ",52.3672307498,16.8283461906,B
1570,"DMOW01","Dmowskiego",52.3870716600,16.8966194900,A
2854,"TRLIP01","Trzek/Lipowa",52.3567172500,17.1706833300,B
118,"FRRY42","Fredry",52.4094800000,16.9184700000,A
1652,"MILO02","Miłostowo",52.4105284700,17.0042454800,A
3734,"WIDWR02","Wierzenica/Dwór",52.4605174800,17.0693962300,C
1826,"KCSZK02","Kicin/Szkoła",52.4634316700,17.0189726200,B
1007,"CEDZ02","Cedzyńska",52.3670087900,16.8499730300,A
929,"LUSTP01","Luboń/Straż Pożarna",52.3452989415,16.8779463612,B
2010,"CYCDR02","Chyby/Cedrowa",52.4524170000,16.7740000000,B
365,"OJLY02","Os. Jagiełły",52.4535995700,16.9073589300,A
1407,"SARB02","Sarbinowska",52.3744328800,16.9643234200,A
1010,"TYNZ02","Tyniecka",52.3621900300,16.8580446400,A
2452,"PKFOL01","Paczkowo/Folwarczna",52.4027530000,17.1636350000,C
4346,"SSPAZ02","Środa Wielkopolska/20 Października",52.2247688004,17.2774483598,C
1755,"KOTOP01","Komorniki/Topolowa",52.3403201000,16.7950742600,B
4038,"SYPR02","Sycowska Prologis",52.3591100000,16.8345300000,A
122,"WROC71","Wrocławska",52.4055683200,16.9321353600,A
4291,"KJKII01","Krajkowo/II",52.2086299049,16.9493877256,C
46,"OPL42","Os. Pod Lipami",52.4309440500,16.9362506500,A
1148,"KORO01","Koronkarska",52.4166131800,16.9602661700,A
1401,"OKOP02","Okopowa",52.3669557100,16.9432286600,A
5,"MT44","Most Teatralny",52.4109651200,16.9137425100,A
2628,"JWWIE01","Jeziory Wielkie/Wieś",52.1837436700,17.1228305600,D
1240,"SDSZU01","Swarzędz/Szumana",52.3990720028,17.0470532801,B
2375,"CEUGM04","Czerwonak/Urząd Gminy",52.4716139000,16.9890116300,B
1111,"SLKA02","Słowiańska",52.4265125500,16.9199547800,A
2108,"PRNA01","Przyjemna",52.3505483600,17.0408873000,A
2123,"SCPET01","Szczytniki/Pętla",52.3045090000,17.0103620000,B
1338,"CZSZK02","Czapury/Szkoła",52.3144885800,16.9117173900,B
452,"BRON01","Bronisza",52.4554530500,16.9477161500,A
606,"KOLO01","Kołobrzeska",52.4313940000,16.8384200000,A
3823,"DEWIA01","Dębogóra/Wiązowa",52.4990156122,17.0756829531,C
398,"STRU01","Strugarka",52.4541267700,16.9276875100,A
3667,"BOKRE02","Bolechowo/Kręta",52.5432544639,16.9947082027,C
628,"SWOB01","Swoboda",52.4117184500,16.8741687600,A
2539,"GAAKA02","Garby Wielkie/Akacjowa",52.3754400000,17.0713100000,C
335,"SLPOZ01","Suchy Las/Os. Poziomkowe",52.4693847100,16.8728784300,B
4095,"RYBI01","Rybitwy",52.4262086000,17.0639211800,A
2381,"KCPRO02","Kicin/Prosta",52.4630817100,17.0071641900,B
1308,"KAPLA02","Kamionki/Platanowa",52.2892556900,16.9782593900,B
3515,"OKEI02","Okrzei",52.3611998000,16.8857784000,A
2608,"KDPRO02","Kórnik/Prowent",52.2414215300,17.0896092300,C
1645,"PANZ01","Porzeczkowa",52.3616272900,17.0155978600,A
2797,"KJCH01","Konopackiej",52.3558408900,16.8408888000,A
4085,"ZIEK02","Ziębicka Kościół",52.3820051348,16.8476343260,A
95,"GLHE43","Głogowska/Hetmańska",52.3899860700,16.8946848200,A
903,"LUKRE02","Luboń/Kręta",52.3201162523,16.8781972398,B
120,"MRCI71","Aleje Marcinkowskiego",52.4064212100,16.9284599000,A
151,"MILO41","Miłostowo",52.4096098600,17.0029011200,A
3821,"MWKOL03","Miękowo/Kolejowa",52.4983504319,16.9772647628,C
685,"PANOW02","Palędzie/Nowa",52.3730021400,16.7386973700,C
4092,"LEZI01","Leśniczówka Zieliniec",52.4214700000,17.0642790000,A
1901,"PCPET02","Przecław/Pętla",52.5512198700,16.7136125900,C
32,"WIKA41","Wielkopolska",52.4155633900,16.9185920900,A
4455,"SIER02","Sierpowa",52.3669370000,17.0163180000,A
315,"MORA02","Morasko",52.4892681800,16.9054379000,A
2757,"RBPRZ01","Robakowo/Przyjazna",52.2980617355,17.0640244780,B
824,"OSDE02","Os. Dębina",52.3615330700,16.9045535900,A
185,"TRAU41","Traugutta",52.3846407200,16.9140023000,A
1801,"RODKU02","Rosnówko/Dom Kultury",52.3032700000,16.7633500000,C
113,"POLW42","Półwiejska",52.3999200000,16.9281600000,A
3930,"PKDWR02","Pokrzywnica/Dworska",52.3900798294,16.6775238927,C
4362,"CMOSR02","Czmoń/Os. Radosne",52.1886652912,17.0499900352,C
2201,"CEOPP02","Czerwonak/Os. Przylesie PKM",52.4808199700,16.9787556700,B
190,"WSPO41","Wspólna",52.3777846200,16.9076140700,A
905,"LUPOD02","Luboń/Podgórna",52.3247731075,16.8793778448,B
1931,"PMBRZ01","Przeźmierowo/Brzozowa",52.4196040000,16.7753940000,B
2508,"SDFIE01","Swarzędz/Pogodna/Średzka",52.4005350000,17.0842660000,B
1034,"GORE02","Górecka",52.3734426200,16.8937284300,A
1837,"KISTA01","Kiekrz/Starzyńska",52.4973581600,16.7688430500,B
1128,"GABA01","Garbary PKM",52.4174898500,16.9403268300,A
1150,"STUD01","Studzienna",52.4194532200,16.9657768000,A
1243,"SDCEG02","Swarzędz/Os. Cegielskiego",52.4011580000,17.0591470000,B
3593,"LUWPL03","Luboń/Wojska Polskiego",52.3430708833,16.8759245750,B
869,"MODLU01","Mosina/Długa",52.2352052989,16.8421887851,C
2453,"PKALT02","Paczkowo/Altanowa",52.4064900000,17.1656330000,C
1872,"RKTRA02","Rokietnica/Trakt Napoleoński",52.5129754200,16.7314301600,B
3886,"TADE41","Tadeuszak",52.3737400000,16.9523000000,A
2843,"ROSK03","Rondo Skubiszewskiego",52.3895752042,16.8544080476,A
4415,"WISLO01","Wiry/Słoneczna",52.3193310366,16.8700067921,B
1166,"URWI01","Urwista",52.4230537700,16.9831660800,A
2015,"CYLIP01","Chyby/Lipowa",52.4607333976,16.7620994885,B
3948,"WILC03","Wilczak",52.4281443625,16.9461853343,A
1290,"RRAT30","Rondo Rataje",52.3968735900,16.9497940800,A
3595,"LUWSC02","Luboń/Wschodnia ",52.3434226895,16.8826392663,B
2041,"TPTER01","Tarnowo Pdg/Termy",52.4633371900,16.6441703000,C
283,"ZLLAG01","Złotniki/Łagiewnicka",52.4921588600,16.8460696500,B
170,"LAKO42","Łąkowa",52.4020600000,16.9342900000,A
2418,"LOSZK01","Łowęcin/Szkolna",52.4132010000,17.1163700000,C
216,"PK42","Piaśnicka/Kurlandzka",52.3852315850,16.9871966030,A
2489,"WZMEH02","Wierzenica/Mechowo",52.4408510000,17.0543450000,B
4009,"NARA72","Naramowice",52.4458880000,16.9451880000,A
3049,"KANKA02","Kamionki/Nad Kople",52.2896360508,17.0003160768,B
2312,"SRSKR02","Śródka/Skrzyżowanie",52.2998666500,17.1229715900,B
3225,"LITRZ01","Lisówki/Trzcielińska",52.3210430000,16.6490040000,C
785,"UP01","Uniwersytet Przyrodniczy",52.4261442500,16.9049661800,A
1969,"BTBAT02","Batorowo/Batorowska",52.4211329400,16.7546509600,C
3313,"GVOSI01","Gaj Wielki/",52.4591930000,16.5769490000,C
1551,"SPKA02","Spławska",52.3567125100,17.0002986500,A
3204,"PLKOL01","Plewiska/Czarna Droga",52.3639939677,16.8146068991,B
748,"MATE02","Matejki",52.4062685300,16.9009621900,A
2526,"SDPOG01","Swarzędz/Pogodna/Kórnicka",52.3995700000,17.0779220000,B
1938,"PMKRA01","Przeźmierowo/Krańcowa",52.4215714351,16.7874382249,B
1220,"SOBI01","Sobiesława",52.4055865700,17.0232445100,A
1206,"GDYN02","Gdyńska",52.4303771340,16.9788880948,A
380,"SOB21","Os. Sobieskiego",52.4650301900,16.9171600600,A
1527,"STRA02","Strzyżowska",52.3546086000,16.9808282800,A
1107,"OPRZ02","Os. Przyjaźni",52.4306230500,16.9298942700,A
2637,"ZMRYN01","Zaniemyśl/Rynek",52.1572143900,17.1596751300,D
3921,"KDINS01","Kórnik/Parkowa Instytut",52.2453229229,17.0959746027,C
2164,"BOSZK02","Bolechowo-Os./Szkoła",52.5412643600,16.9746370000,C
2399,"KINZ02","Krzesinki",52.3402860700,17.0127481600,A
2672,"TBSKR01","Trzebisławki/Skrzyżowanie",52.2622076158,17.1663681801,C
1132,"MAGA03","Małe Garbary",52.4106331000,16.9393766600,A
2484,"BGLIG02","Bogucin/Ligowiec",52.4373380000,17.0348210000,B
699,"ZKZAC01","Zakrzewo/Zacisze",52.3899850400,16.7388852200,C
2222,"GWCZE01","Gowarzewo/Czereśniowa",52.3597796300,17.1316287700,B
45,"WILC41","Wilczak",52.4271476000,16.9467686700,A
793,"ALSO04","Aleje Solidarności",52.4353311700,16.9207035900,A
4356,"RBWIE04","Robakowo/Wiejska",52.3102955405,17.0748122568,B
1066,"TREB02","Trębacka",52.3876410100,16.8695737300,A
144,"KRAN42","Krańcowa",52.4094277500,16.9810464800,A
2103,"BZZNO02","Brzezno/",52.4913176100,16.6220973800,C
218,"SZWE42","Szwedzka",52.3821217700,16.9909330100,A
2476,"SDDWO02","Swarzędz/Dworzec Kolejowy",52.4046330000,17.0750990000,B
2697,"DCWIE01","Dębiec/Wieś",52.2355127495,17.1534848273,C
966,"LUTRA03","Luboń/Traugutta",52.3441533548,16.8489477491,B
2187,"OWLIP02","Owińska/Lipowa",52.5174170200,16.9852050500,C
4055,"PKPKM10","Paczkowo/PKM",52.3962069600,17.1583400656,C
437,"IMBI02","Imbirowa",52.5003817200,16.9387436800,A
2415,"JSSOL01","Jasin/Sołecka",52.4076980000,17.0986540000,B
1305,"KALAK01","Kamionki/Łąkowa",52.2884008800,16.9816866100,B
1326,"GLOS02","Głuszyna OSIR",52.3128791900,16.9689151300,A
2287,"CEZAL01","Czerwonak/Zalesie",52.4649436430,16.9910483270,B
2426,"SBDZI01","Sarbinowo/Dzika",52.4238060000,17.1560950000,C
1940,"PMKOS01","Przeźmierowo/Kościelna",52.4268560000,16.7850630000,B
1245,"SDRAC02","Swarzędz/Os. Raczyńskiego",52.4000140000,17.0633630000,B
2519,"LKSZK01","Lusówko/Szkoła",52.4263976801,16.6480825538,C
2766,"GLSTW01","Głuchowo/Stawna",52.3460476160,16.7705408148,C
89,"DWZA72","Dworzec Zachodni",52.4017716400,16.9090824300,A
128,"MAGA41","Małe Garbary",52.4107493300,16.9374709200,A
138,"ROSR47","Rondo Śródka",52.4105194500,16.9573420600,A
1526,"SANT02","Sanocka",52.3613348000,16.9797234700,A
28,"KURP41","Kurpińskiego",52.4507725100,16.9196313300,A
1460,"KOSC01","Kościelna",52.4134830800,16.9040055500,A
386,"SZYM02","Szymanowskiego",52.4601525700,16.9170216000,A
4202,"TPSLO01","Tarnowo Pdg/Słonecznikowa",52.4734580000,16.6640800000,C
2423,"LOSAR02","Łowęcin/Sarbinowska",52.4187450000,17.1333030000,C
3991,"KOTU02","Kościelna Tunel",52.4180684749,16.9064727312,A
1278,"MOGI02","Mogileńska",52.4096206000,16.9924945700,A
734,"BULG01","Bułgarska Enea Stadion",52.3961310000,16.8624166100,A
1795,"SZDWO01","Szreniawa/Dworcowa",52.3186450896,16.7936954318,C
238,"RSTA47","Rondo Starołęka",52.3799600900,16.9440334600,A
2688,"CMSWI02","Czmoń/Świerkowa",52.1832336545,17.0529415479,C
4320,"SFSWI04","Świątniki/I",52.2297703055,16.9480447873,C
1711,"DWZA02","Dworzec Zachodni",52.4009897700,16.9097960300,A
3945,"SPKA04","Spławska",52.3571048734,17.0003898646,A
114,"POLW41","Półwiejska",52.3999700000,16.9279200000,A
552,"TOLT02","Tołstoja",52.4499525500,16.8705847400,A
947,"WIPLD02","Wiry/Południowa",52.3175980974,16.8569168333,B
322,"DESZ02","Deszczowa",52.4716679700,16.9019816600,A
1908,"BYPOR02","Bytkowo/Porzeczkowa",52.5161563000,16.7720989300,B
1659,"GABA04","Garbary PKM",52.4167634300,16.9391277100,A
2265,"KYORL02","Kliny/Orla",52.4783680900,17.0421019700,C
2631,"JMJMM02","Jeziory Małe/",52.1671102400,17.1484836500,D
563,"STST21","Stary Strzeszyn",52.4518353900,16.8489658700,A
267,"GOSZK01","Golęczewo/Szkoła",52.5350996600,16.8190061700,C
2646,"BEDEB02","Biernatki/Dębiecka",52.2301879000,17.1034884900,C
3154,"WIAT02","Wiatraczna",52.3904760000,16.9667770000,A
1121,"WILC01","Wilczak",52.4269576000,16.9479935100,A
1446,"ZERO03","Żeromskiego",52.4158406300,16.8903693200,A
845,"KRSZK02","Krosno/Szkoła",52.2227427139,16.8323750054,C
801,"ZAME01","Zamek",52.4084429900,16.9179373900,A
1800,"ROSTW01","Rosnówko/Stawnego",52.2996148486,16.7719575409,C
183,"HEWI42","Hetmańska Wiadukt",52.3826620500,16.9294650500,A
2088,"TPOKR02","Tarnowo Pdg/Okrężna",52.4700622700,16.6502600700,C
1997,"LWSWA02","Lusowo/Swadzimska",52.4316880000,16.7051230000,C
497,"WIKT01","Wiktoria",52.4385040000,16.9309830000,A
829,"PINZ02","Piastowska",52.3722627000,16.9185810400,A
124,"PLRA42","Pl. Ratajskiego",52.4095986000,16.9239237500,A
1782,"KNOSL02","Konarzewo/Os. 25-lecia",52.3345553200,16.7245063000,C
3788,"BEDEB01","Biernatki/Dębiecka",52.2302155300,17.1033383400,C
3528,"WYSKO02","Wysogotowo/Skórzewska ",52.4023791700,16.7961648100,B
2427,"SBDZI02","Sarbinowo/Dzika",52.4237620000,17.1564120000,C
2170,"BOFAU01","Bolechowo-Os./Fabryka Autobusów",52.5462731500,16.9728438900,C
604,"SMOC01","Smochowice",52.4321195300,16.8323893000,A
1048,"KORF01","Korfantego",52.3592496300,16.8867441100,A
125,"PLRA41","Pl. Ratajskiego",52.4095816900,16.9241997100,A
310,"SLLAK01","Suchy Las/Łąkowa",52.4811305700,16.8790950300,B
2247,"NGPAR02","Nagradowice/Park",52.3201232600,17.1497962000,B
2105,"KMSTO01","Kaźmierz/Storczykowa",52.5100143100,16.5881489700,C
1169,"GNIE02","Gnieźnieńska",52.4243702900,16.9908254300,A
1834,"KIZIE02","Kiekrz/Zielona",52.4919982200,16.7728699100,B
811,"POGL01","Poznań Główny",52.4025035600,16.9121744200,A
1252,"PRZM01","Os. Przemysława",52.3915536400,17.0092621300,A
2516,"XRPET01","Kruszewnia/Pętla",52.3746730000,17.1031210000,C
2223,"GWAKA02","Gowarzewo/Akacjowa",52.3622413400,17.1301941700,B
1738,"PLRYN01","Plewiska/Rynek",52.3686891100,16.8127774200,B
3661,"WOPO06","Wojska Polskiego",52.4288646237,16.8969245877,A
1445,"ARPO01","Armii Poznań",52.4213823500,16.9229206700,A
2505,"XRIZA02","Kruszewnia/Os. Izabelin",52.3851600000,17.0972610000,C
4378,"KMIC01","Kmicica",52.3942697974,16.8354593362,A
1705,"ZAME72","Zamek",52.4073400000,16.9181100000,A
583,"ADMI02","Admiralska",52.4757478100,16.7774765600,A
3809,"WILC42","Wilczak",52.4271580000,16.9466430000,A
1950,"PMWIA02","Przeźmierowo/Wiadukt",52.4354184600,16.7863166501,B
3312,"RUNOA01","Rumianek/Nowa II",52.4623013300,16.6307977000,C
2295,"KXTAN01","Tanibórz/Zachód",52.3453565400,17.1136235800,B
3202,"KOWZG02","Komorniki/Os. Zielone Wzgórze ",52.3245000000,16.8200900000,B
2178,"BOOGR01","Bolechowo-Os./Ogrodowa",52.5332147700,16.9771902900,C
2073,"CKJAN02","Ceradz Kościelny/Jankowicka",52.4402270000,16.6002740000,C
2651,"KDINS02","Kórnik/Parkowa Instytut",52.2450821500,17.0961829700,C
2781,"PTWIE02","Potasze/Wierzbowa",52.5236871600,17.0254049900,C
2311,"ZNSZK02","Zimin/Szkoła",52.2953961100,17.1517947500,B
306,"SLNWR02","Suchy Las/Nowy Rynek",52.4750612400,16.8791538900,B
1153,"GLOW01","Główna",52.4227869400,16.9764654200,A
2626,"BHPET01","Błażejewko/Pętla",52.1992748000,17.1076437400,C
1846,"RKROS04","Rokietnica/ROS",52.5124730000,16.7416760000,B
2870,"LUBUC01","Luboń/Poznańska",52.3395165825,16.8696821257,B
48,"ROSO42","Rondo Solidarności",52.4339380800,16.9377328700,A
347,"KOSO02","Kosowska",52.4560162800,16.8773008700,A
2614,"KDBLA02","Kórnik/Bnin Błażejewska",52.2282747800,17.0934814700,C
2873,"POOSI02","Poklatki/Osiedle",52.3294866800,17.2034851800,B
2531,"ZASPA02","Zalasewo/Spacerowa",52.3810760000,17.0721880000,B
2107,"NKRZ02","Nad Krzesinką",52.3358593100,17.0097223700,A
4335,"GSPAM01","Gołuski/Pamiątkowa",52.3637054408,16.7467368651,C
2146,"TULES04","Tulce/Leśna",52.3445240000,17.0738600000,B
1094,"WYSP02","Wyspiańskiego",52.3974319100,16.8996306400,A
2645,"BELAS01","Biernatki/Laskowa",52.2271642900,17.1065144500,C
350,"MORS02","Morszyńska",52.4582613800,16.8719060700,A
206,"Z II42","Żegrze II",52.3807152400,16.9661947200,A
2750,"SCTRZ01","Szczodrzykowo/Poznańska",52.2931570100,17.1068273600,C
732,"BULG05","Bułgarska Enea Stadion",52.3948760000,16.8613850000,A
180,"OPIA42","Os. Piastowskie",52.3899918400,16.9471448300,A
1990,"SIKSZ02","Sierosław/Kasztanowa",52.4035058900,16.6744881500,C
414,"UAMK02","UAM Kampus",52.4637778900,16.9305139300,A
4296,"KRPIA01","Krosno/Piaskowa/Tylna",52.2238371739,16.8309287642,C
1374,"SAND02","Sandomierska",52.3520455744,16.9567517497,A
1422,"DRDE02","Droga Dębińska",52.3870132300,16.9305828900,A
4396,"CCHA01","Czarnucha",52.4498370690,16.9541986912,A
441,"BIJES02","Biedrusko/Jesionowa",52.5363894500,16.9437250300,B
1506,"SSZP02","Szwajcarska Szpital",52.3888784900,16.9921746500,A
736,"DRZE01","Drzewieckiego",52.3969736500,16.8675910400,A
1699,"GROT71","Grotkowska",52.3865628400,16.8439037400,A
1261,"BLIZ02","Bliźniąt",52.3931962200,16.9805026000,A
1013,"KOTO02","Kotowo",52.3592269200,16.8537916000,A
1046,"SWIE01","Świerczewo",52.3570526700,16.8839986500,A
2037,"TPNOW01","Tarnowo Pdg/Nowa",52.4623990300,16.6552319600,C
3026,"RZRZI02","Radzewice/I",52.2197667318,16.9765416422,C
393,"OSBA02","Os. Batorego",52.4605144200,16.9286422400,A
316,"MOKO02","Morasko Kościół",52.4887599500,16.9084893200,A
3195,"SKGRA02","Skórzewo/Os. Grafitowe",52.3949790000,16.7635930000,B
4461,"GLEB01","Glebowa",52.3584540000,17.0111920000,A
2866,"SEMAL02","Siekierki Wielkie/Malinowa",52.3753524600,17.1601498400,C
2345,"GRKAT01","Gruszczyn/Katarzyńska",52.4326600000,17.0730700000,B
1299,"BRBOR01","Borówiec/Borówkowa",52.2827159500,17.0121129800,B
1909,"BYPOR01","Bytkowo/Porzeczkowa",52.5161970300,16.7719880400,B
2534,"ZAHSZ02","Zalasewo/Heweliusza Szkoła",52.3848580000,17.0687360000,B
2208,"KZLIP01","Koziegłowy/Lipowa",52.4540658000,16.9844318900,B
236,"RSTA43","Rondo Starołęka",52.3805416700,16.9421001900,A
458,"KULY01","Kupały",52.4507628200,16.9370899500,A
3155,"WIAT04","Wiatraczna",52.3900570000,16.9667070000,A
1372,"RAKA02","Radomska",52.3542823200,16.9487158300,A
1841,"RKROL02","Rokietnica/Rolna",52.5074927200,16.7553704500,B
957,"KOGRA01","Komorniki/Granica",52.3362958144,16.8237565884,B
2536,"ZATRA02","Zalasewo/Transportowa",52.3821030000,17.0672440000,B
16,"SLKA41","Słowiańska",52.4271586000,16.9194629700,A
2205,"CEPKM01","Czerwonak/PKM",52.4689475100,16.9800592000,B
967,"LUTRA01","Luboń/Traugutta",52.3446494786,16.8511171109,B
2733,"GDPKM02","Gądki/PKM",52.2992762900,17.0503411900,B
3064,"LIDPS01","Lisówki/DPS",52.3324740000,16.6469710000,C
944,"WINOW02","Wiry/Nowa",52.3179410803,16.8708774883,B
1384,"ZEGL01","Żeglarska",52.3566341900,16.9237549200,A
1109,"OZIM01","Ozimina",52.4280068400,16.9248374900,A
4354,"PZJAG02","Pierzchno/Jagrol",52.2676386370,17.1478769532,C
1442,"URMA02","Urząd Marszałkowski",52.4155021600,16.9262979400,A
2709,"SUSUW01","Słupia Wielka/",52.2173604728,17.2182557730,C
1202,"KAIN01","Karolin PKM",52.4393610952,16.9822085465,A
1125,"WIGR01","Winogrady",52.4237505100,16.9488417000,A
304,"SLOSZ02","Suchy Las/Os. Szafirowe",52.4708894787,16.8753490300,B
1033,"GORE01","Górecka",52.3729957100,16.8932705500,A
1829,"KZDZI01","Koziegłowy/Działki",52.4496473600,17.0030254700,B
659,"PERZ02","Perzycka",52.4118341400,16.8189917400,A
2340,"UZSKR02","Uzarzewo/Skrzyżowanie",52.4604250000,17.1115410000,C
731,"WEGO01","Węgorka",52.3928442000,16.8585486500,A
202,"RZEG41","Rondo Żegrze",52.3767000000,16.9542600000,A
1594,"ROBO02","Robocza",52.3881790000,16.9110300000,A
3803,"KCNOS01","Kicin/Nowe Osiedle",52.4679211589,17.0106463712,B
1916,"SOPOZ01","Sobota/POZ BRUK",52.5166395300,16.8137192000,B
2333,"XOSTA01","Kobylnica/Węzeł",52.4456610000,17.0766050000,B
1775,"KONOW02","Komorniki/Nowa",52.3388038837,16.8148430201,B
1040,"KOZM01","Koźmińska",52.3692065300,16.8765909200,A
2927,"BOZSZ01","Bolechowo-Os./Zespół Szkół",52.5503881700,16.9762534700,C
809,"MT01","Most Teatralny",52.4109129400,16.9139456400,A
1421,"DRDE01","Droga Dębińska",52.3874419000,16.9305755000,A
1760,"KOKSW02","Komorniki/Ks.Wawrzyniaka",52.3470874600,16.8032274800,B
1890,"RTSOB01","Rostworowo/Sobocka",52.5373891300,16.7591202400,B
1794,"WABRZ01","Walerianowo/Brzozowa",52.3186800000,16.7734400000,C
281,"ZLPAW02","Złotniki/Pawłowicka",52.4981670100,16.8391154200,B
331,"SLBOR01","Suchy Las/Borówkowa",52.4736028600,16.8637106000,B
2342,"UZKOS01","Uzarzewo/Centrum (Kościół)",52.4489120000,17.1266600000,C
467,"UMUL01","Umultowska",52.4442552500,16.9288232700,A
1866,"MRPAR02","Mrowino/Park",52.5180030000,16.7056650000,B
960,"KOLUB01","Komorniki/Lubońska",52.3390294225,16.8343230038,B
1119,"KSMI02","Księcia Mieszka I",52.4292671700,16.9199519400,A
156,"RRAT72","Rondo Rataje",52.3947710000,16.9499410000,A
2778,"PUNAD01","Puszczykowo/Nadwarciańska",52.2656695500,16.8728698200,C
4301,"KRKRI01","Krosno/Krosińska I",52.2268128832,16.8404031199,C
3514,"OKEI01","Okrzei",52.3615329000,16.8853534000,A
2262,"KYTRA01","Kliny/Trakt",52.4755891600,17.0330154500,C
1776,"MODL02","Modlibowskiej ",52.3545116100,16.8487692800,A
2129,"BRLAS02","Borówiec/Las",52.2927870000,17.0448840000,B
4083,"CMEF01","Cmentarna Furtka",52.3881153633,16.8342787311,A
248,"CHWAR02","Chludowo/Wargowska",52.5600436400,16.8321087600,C
789,"WINI01","Os. Winiary",52.4352550000,16.9104530000,A
2027,"TPKAW02","Tarnowo Pdg/Karolewo II",52.4720947394,16.6960298772,C
1569,"DRUZ01","Drużynowa",52.3808882200,16.8976649400,A
1170,"CMEN01","Gnieźnieńska Cmentarz",52.4251790400,16.9937703300,A
951,"WIWIR01","Wiry/Wirowska",52.3266772230,16.8435317233,B
4180,"KASTO01","Kamionki/Stokrotkowa",52.2907198300,16.9740476100,B
2174,"ZSNZ02","Żerniki/Skrzyżowanie",52.3268396556,17.0426260111,B
2744,"DHKRE01","Dachowa/Kręta",52.3044238900,17.0817273900,B
1644,"PJNZ01","Podjaryszki",52.3377043700,17.0150863200,A
4122,"SLPOZ03","Suchy Las/Os. Poziomkowe",52.4692060000,16.8736460000,B
4182,"ZEFPP01","Żerniki/Fabryczna Panattoni Park",52.3317664900,17.0277208700,B
692,"DPPRZ01","Dopiewiec/Przejazd Kolejowy",52.3595712200,16.6915253900,C
3175,"DOWJE02","Dopiewo/Więckowska I",52.3683036141,16.6661015387,C
4329,"CEZDR02","Czerwonak/Zdroje",52.4704935400,17.0007796500,B
3249,"MOJEZ01","Mosina/Jeziorna",52.2401513783,16.8285823116,C
735,"BULG02","Bułgarska Enea Stadion",52.3949510000,16.8630780000,A
4132,"SLCME01","Suchy Las/Cmentarz",52.4718518910,16.8557509858,B
2934,"RDWA03","Rdestowa",52.4897021710,16.9405774602,A
3587,"GLTEC03","Głuchowo/Tęczowa",52.3451700000,16.7758400000,C
1304,"KAPET01","Kamionki/Pętla",52.2862400377,16.9945311120,B
397,"STRU02","Strugarka",52.4532731100,16.9274707300,A
2841,"JAWO01","Jawornicka",52.3871280000,16.8587280000,A
1341,"WRPET02","Wiórek/Pętla",52.3035467500,16.9075839000,B
1164,"HLDA01","Hlonda",52.4200346500,16.9617654700,A
882,"PUPSK02","Puszczykowo/Piaskowa",52.2768788200,16.8538291700,C
3183,"WKBLO02","Więckowice/Bloki",52.3900077404,16.6404086208,C
1979,"LWBOC02","Lusowo/Boczna",52.4214597900,16.7179080400,C
1403,"WARO02","Warowna",52.3676200000,16.9484000000,A
2459,"SDDDW01","Swarzędz/Działkowa II",52.4093760000,17.0570010000,B
3176,"DOWDW01","Dopiewo/Więckowska II",52.3732438629,16.6596524835,C
1226,"PIWN02","Piwna",52.3928587300,17.0149661200,A
2273,"MELIS02","Mielno/Lisia",52.4894689300,17.0718976700,C
1428,"AWF05","AWF",52.4008328400,16.9365209600,A
2393,"SDGRU01","Swarzędz/Cieszkowskiego",52.4133620000,17.0852100000,B
84,"BALT71","Bałtyk",52.4065890000,16.9110520000,A
1339,"CZWAR01","Czapury/Warta",52.3088408300,16.9101880500,B
2309,"ZNOSP02","Zimin/Świetlica OSP",52.2942037600,17.1590554600,B
1970,"BTBAT01","Batorowo/Batorowska",52.4213294100,16.7539934300,C
521,"DUKI01","Dukielska",52.4490886900,16.8897507700,A
490,"ROSO03","Rondo Solidarności",52.4352952900,16.9372831400,A
100,"ARCI41","Arciszewskiego",52.3928844400,16.8867070100,A
2276,"WEPET01","Wierzonka/Pętla",52.4780400000,17.0951310000,C
1622,"ORZE02","Os. Rzeczypospolitej",52.3859543100,16.9454856500,A
2591,"PXZEG01","Bytyń/Żeglarska",52.4964290000,16.4969920000,C
4294,"KRPOS02","Krosno/Piaskowa/Os. Miodowe",52.2265686836,16.8257783746,C
213,"PIAR41","Piaśnicka Rynek",52.3876647854,16.9824741827,A
977,"LUPBO01","Luboń/Pl. Bojanowskiego",52.3493759069,16.8608866179,B
2458,"SDDJE01","Swarzędz/Działkowa I",52.4077530000,17.0483610000,B
2450,"PKSZK01","Paczkowo/Szkoła",52.4020809983,17.1595797010,C
763,"MARC02","Marcelińska",52.4042609700,16.8762033700,A
647,"MALE02","Malechowska",52.4117440800,16.8300521500,A
2300,"BUBUG01","Bugaj/",52.3104351000,17.1818931800,B
665,"ZLDZ02","Złotowska Działki",52.4016095000,16.8105267900,A
2114,"JRSKL01","Jaryszki/Składowa",52.3299460000,17.0161340000,B
2365,"BWKRE01","Bolechówko/Kręta",52.5180795000,16.9872088100,C
2382,"DELES02","Dębogóra/Leśna",52.4974469900,17.0919767300,C
725,"CMNA02","Cmentarna",52.3848173100,16.8394336800,A
247,"CHTYS02","Chludowo/Tysiąclecia",52.5594717900,16.8382236600,C
3536,"WYSTO01","Wysogotowo/Stolarska",52.4077117100,16.7840276900,B
4287,"BLBOL01","Bolesławiec/",52.2093989876,16.7827010470,C
217,"SZWE41","Szwedzka",52.3821058400,16.9908248300,A
174,"GWAR71","Gwarna",52.4073590000,16.9211080000,A
2686,"RDOSP01","Radzewo/Strażnica",52.2093356519,17.0208586051,C
1889,"RTSOB02","Rostworowo/Sobocka",52.5370198100,16.7587170600,B
639,"LESK01","Leśnych Skrzatów",52.4124386400,16.8500791800,A
126,"PLWI42","Pl. Wielkopolski",52.4103531800,16.9308266000,A
2259,"KCPET02","Kicin/Pętla",52.4654992100,17.0213179200,B
159,"KORN42","Kórnicka",52.3987724600,16.9522537500,A
1369,"ROMI02","Rondo Minikowo",52.3559338200,16.9431014900,A
2076,"CDOKR02","Ceradz Dolny/Okrężna",52.4254497100,16.5769179700,C
964,"LUSTU02","Luboń/Studzienna",52.3429896969,16.8445795103,B
1251,"PRZM02","Os. Przemysława",52.3916630400,17.0083528900,A
1082,"SIEL72","Sielska",52.3840502200,16.8870422900,A
2150,"TUKRO01","Tulce/Krótka",52.3427530000,17.0762860000,B
1189,"KZTDW01","Koziegłowy/Taczaka II",52.4437297100,17.0028496100,B
994,"LANG01","Lange",52.3558960200,16.8335377800,A
1456,"MACZ02","Maczka",52.4237774900,16.9142029800,A
271,"GOOBO02","Golęczewo/Obornicka",52.5350930700,16.8354304500,C
1881,"RKMIC01","Rokietnica/Mickiewicza",52.5158567900,16.7396183900,B
2436,"PKWIO02","Paczkowo/Wiosenna",52.3993740000,17.1587560000,C
2414,"JSSOL02","Jasin/Sołecka",52.4077050000,17.0983890000,B
4266,"LEPOL01","Łęczyca/Polna",52.3069400000,16.8713500000,B
938,"LUDEB01","Luboń/Dębiecka",52.3531999753,16.9016322504,B
2900,"SKSZA02","Skórzewo/Szarotkowa",52.3938650000,16.7963130000,B
2127,"KXLAS01","Koninko/Las",52.2999380000,17.0303780000,B
1586,"IPNZ02","IPN",52.3795993700,16.9145704300,A
2007,"BNKLO02","Baranowo/Klonowa",52.4441390000,16.7857500000,B
3972,"RBNOW02","Robakowo/Nowina",52.2939258548,17.0725543496,B
508,"LUSZ01","Lutycka Szpital",52.4412379000,16.9072570100,A
1089,"SSKA02","Szymborska",52.3930640200,16.8885300600,A
1740,"PLSKR01","Plewiska/Skryta",52.3716588700,16.8169676000,B
954,"KOJAL02","Komorniki/Jałowcowa",52.3341394829,16.8299252499,B
694,"DOOSR01","Dopiewo/Ośrodek Zdrowia",52.3591770600,16.6825271300,C
3529,"WYSKO01","Wysogotowo/Skórzewska ",52.4022850200,16.7964778700,B
222,"OSTY41","Os. Tysiąclecia",52.3922581500,16.9722808200,A
1992,"SIPRO02","Sierosław/Prosta",52.4021933200,16.6670028300,C
1820,"TURY01","Turystyczna",52.4824683200,16.7805179400,A
134,"ROSR43","Rondo Śródka",52.4095338300,16.9562091400,A
672,"SKGIM01","Skórzewo/Kozierowskiego Szkoła",52.3907040000,16.7777900000,B
2087,"TPOKR01","Tarnowo Pdg/Okrężna",52.4693106700,16.6515268200,C
1006,"CEDZ01","Cedzyńska",52.3675095800,16.8491513400,A
1976,"BTBRZ02","Batorowo/Brzask",52.4227121100,16.7321550700,C
1365,"ZAKL01","Zaklikowska",52.3486860100,16.9411966200,A
520,"DUKI02","Dukielska",52.4491384600,16.8895241000,A
1079,"CZNZ01","Częstochowska",52.3841036300,16.8830213000,A
2373,"PTWIE01","Potasze/Wierzbowa",52.5236765300,17.0251506100,C
1686,"UE71","Uniwersytet Ekonomiczny",52.4060300000,16.9169800000,A
2612,"KDBRY01","Kórnik/Bnin Rynek",52.2311874800,17.0964539200,C
1096,"PALM02","Palmiarnia",52.4011323300,16.9000809700,A
2515,"XRCZA01","Kruszewnia/Czarnoleska",52.3793910000,17.1034750000,C
3594,"LUWSC01","Luboń/Wschodnia ",52.3431159868,16.8820784789,B
1197,"KZSZK04","Koziegłowy/Szkoła",52.4466610000,16.9907670000,B
2065,"LKDOP01","Lusówko/Dopiewska",52.4280784300,16.6457201500,C
3634,"JRMAG01","Jaryszki/Składowa Magazyny",52.3349753200,17.0120519900,B
2071,"JNPAL01","Jankowice/Pałac",52.4408779500,16.6172356000,C
3974,"SCSZK02","Szczodrzykowo/Szkoła",52.2844967703,17.1051685647,C
3518,"KCZA02","Kotowicza",52.3667558000,16.8844354000,A
2110,"TUOSP02","Tulce/Przylesie",52.3459140900,17.0628576400,B
554,"PUSA02","Puszkina",52.4527483700,16.8649292500,A
3172,"DOKAS02","Dopiewo/Kasztanowa",52.3641111813,16.6714732918,C
2881,"KVWIA01","Krzyżowniki/Wiadukt",52.3109321500,17.1407804500,B
1241,"SDPRZ01","Swarzędz/Przybylskiego",52.4011260698,17.0557454849,B
1744,"PLBOI02","Plewiska/Boisko",52.3678400000,16.8013800000,B
1884,"KSPET02","Krzyszkowo/Pętla",52.5242490756,16.7312266659,B
276,"ZOCED02","Złotkowo/Cedrowa",52.5088791200,16.8369692000,B
2011,"CYCDR01","Chyby/Cedrowa",52.4529720000,16.7728610000,B
2026,"TPKAW01","Tarnowo Pdg/Karolewo II",52.4720497675,16.6955133625,C
2260,"KCROL02","Kicin/Rolna",52.4696196800,17.0257032400,B
4411,"PLJAN01","Plewiska/Jantarowa",52.3650037971,16.8218528627,B
3604,"IAS02","Izba Administracji Skarbowej",52.3895481706,16.9242998678,A
1981,"LWGRZ01","Lusowo/Grzybowa",52.4190489600,16.7181421800,C
4018,"PAWRZ02","Palędzie/Wrzosowa",52.3728820000,16.7259800000,C
616,"PLOT01","Przelot",52.4262619600,16.8599110000,A
1231,"SCDZ02","Schronisko Dla Zwierząt",52.3891142900,17.0251558600,A
1080,"GORC30","Górczyn PKM",52.3818397800,16.8814533600,A
2545,"GAMTU01","Garby Małe/Tulecka",52.3614000000,17.0752240000,C
765,"MARC03","Marcelińska",52.4039261400,16.8753788800,A
4021,"JROL03","Jasna Rola",52.4518617766,16.9457868801,A
932,"LUWPL01","Luboń/Wojska Polskiego",52.3426829913,16.8749653334,B
3801,"MWOGR02","Miękowo/Ogrodowa",52.4973885992,16.9832120609,C
1069,"TACZ02","Taczanowskiego",52.3915854300,16.8677131200,A
1465,"OJAG02","Os. Jagiellońskie",52.3940101100,16.9564066300,A
4416,"WISLO02","Wiry/Słoneczna",52.3187624234,16.8710250639,B
1691,"SZOO71","Stare Zoo",52.4082919200,16.9086570300,A
2749,"SCTRZ02","Szczodrzykowo/Poznańska",52.2927239400,17.1080833300,C
2042,"TPTER02","Tarnowo Pdg/Termy",52.4634689500,16.6418115100,C
2497,"JSRCZ02","Jasin/Rabowicka II",52.3983900000,17.1064040000,B
1947,"BNPRZ02","Baranowo/Przemysława",52.4339241270,16.7961599449,B
2874,"GOSP02","Gospodarska",52.3556800314,17.0280160233,A
1663,"SOB26","Os. Sobieskiego",52.4652405040,16.9163750563,A
2627,"JWWIE02","Jeziory Wielkie/Wieś",52.1837605700,17.1238948700,D
1702,"JUNI43","Junikowo",52.3838300000,16.8356600000,A
2486,"JASZY02","Janikowo/Szybowcowa",52.4397750000,17.0434020000,B
671,"SKOSM01","Skórzewo/Os. Makowe",52.3899460000,16.7800680000,B
632,"KLRA02","Kolorowa",52.4118094600,16.8650660500,A
1758,"KOKSM02","Komorniki/Ks.Malinowskiego",52.3395108200,16.8004001400,B
3092,"RAKO04","Rakoniewicka",52.3779401929,16.8827278117,A
241,"TRAU45","Traugutta",52.3856225400,16.9148690100,A
2402,"LWJUT02","Lusowo/Jutrzenki",52.4425080000,16.6911770000,C
314,"SLKRA01","Suchy Las/Krańcowa",52.4813058000,16.8860568100,B
2601,"SYJEZ01","Skrzynki/Jeziorna",52.2669041600,17.0701069100,C
1294,"BRDSZ01","Borówiec/Deszczowa",52.2806415700,17.0382476200,B
1876,"NASTA02","Napachanie/Starzyńska",52.4897370000,16.7317860000,B
535,"LUDO02","Lutycka/Dojazd",52.4408859400,16.9015685900,A
2947,"OSIA03","Ostatnia",52.3725136784,16.8668044008,A
652,"BRZE02","Brzechwy",52.4077735600,16.8440425500,A
1799,"ROSTW02","Rosnówko/Stawnego",52.2993981384,16.7725330859,C
19,"NADW42","Nad Wierzbakiem",52.4213126600,16.9081035700,A
1695,"ROSK42","Rondo Skubiszewskiego",52.3898260000,16.8534270000,A
576,"NJEZ01","Nad Jeziorem",52.4732931600,16.7943800500,A
2045,"RUSZK02","Rumianek/Szkolna",52.4621237800,16.6240799700,C
4424,"CYSZK01","Chyby/Szkolna",52.4568890000,16.7673610000,B
1093,"SOEJ01","Sczanieckiej",52.3949794400,16.8969889800,A
1319,"BBOSZ01","Babki/Ośrodek Zdrowia",52.3136827700,16.9360199100,B
2630,"JWJWW01","Jeziory Wielkie/",52.1828968600,17.1324146300,D
2052,"MT02","Most Teatralny",52.4100495400,16.9129050600,A
2512,"ZAOLS02","Zalasewo/Olszynowa",52.3886820000,17.0934280000,B
432,"RDWA02","Rdestowa",52.4892888700,16.9417493000,A
3173,"DOKAS01","Dopiewo/Kasztanowa",52.3645349506,16.6709272619,C
1643,"KINZ01","Krzesinki",52.3402166400,17.0125720900,A
1476,"LI02","Os. Lecha I",52.3879597900,16.9684768100,A
1415,"OAK01","Os. Armii Krajowej",52.3815993700,16.9517949900,A
1805,"KOJEZ02","Komorniki/Jeziorna",52.3294114256,16.8016645160,B
2119,"SCSAR02","Szczytniki/Sarnia",52.2995050000,17.0112800000,B
1381,"SWAN04","Św. Antoniego",52.3645619996,16.9293026818,A
2115,"KXDRU01","Koninko/Drukarska",52.3194150000,17.0243310000,B
2600,"RBWEZ01","Robakowo/Węzeł",52.2968074200,17.0513468000,B
788,"WINI02","Os. Winiary",52.4347906600,16.9087822900,A
599,"BRAN01","Braniewska",52.4352589000,16.8216492500,A
4257,"LEPOG02","Łęczyca/Pogodna",52.3164900000,16.8789600000,B
4317,"ZBZBN01","Żabinko/",52.1953995993,16.8795844507,C
3624,"BFSTA02","Biskupice/Stacja",52.4666168338,17.1698214500,C
1000,"TRZE02","Trzebińska",52.3681974400,16.8424564600,A
1966,"TPDZI02","Tarnowo Pdg/Działkowa",52.4572864100,16.6910767000,C
24,"ALSO41","Aleje Solidarności",52.4359483100,16.9202087300,A
1257,"DYMK03","Dymka",52.3932683700,16.9906881700,A
2502,"RASTL01","Rabowice/Świetlica",52.3896690000,17.1179860000,C
2704,"XSKOS01","Koszuty/",52.2303762363,17.1979788809,C
619,"PONZ01","Polska",52.4186600000,16.8729303300,A
755,"POLN01","Polna Szpital",52.4090092300,16.8935784100,A
2302,"KEPAL01","Krerowo/Pałac",52.2959357000,17.1947378400,B
1752,"GLSTW04","Głuchowo/Stawna",52.3465437186,16.7688141799,C
926,"LUOKR01","Luboń/Okrzei",52.3464174385,16.8869779900,B
1611,"CZ I01","Os. Czecha I",52.3829141900,16.9832447700,A
2366,"BWKRE02","Bolechówko/Kręta",52.5180531200,16.9873820900,C
3606,"ZEKA02","Żelazka",52.3911611495,16.9282696523,A
158,"KORN41","Kórnicka",52.3987998700,16.9520989000,A
2216,"GWJES01","Gowarzewo/Jesionowa",52.3532834800,17.1118970900,B
377,"SOSZ01","Os. Sobieskiego Szkoła",52.4657475600,16.9065992000,A
123,"WROC72","Wrocławska",52.4056098100,16.9323084800,A
1108,"OZIM02","Ozimina",52.4277672700,16.9236348800,A
499,"SUSZ01","Suszki",52.4468964900,16.9140589000,A
2899,"SKSZA01","Skórzewo/Szarotkowa",52.3934170000,16.7950910000,B
286,"ZLWIE01","Złotniki/Wieś",52.4867062600,16.8311198800,B
867,"MODEB01","Mosina/Dębowa",52.2380174884,16.8446090255,C
1254,"ZELA02","Żelazna",52.3923997500,16.9985012200,A
591,"KRZY01","Krzyżowniki",52.4418011800,16.8075931300,A
3551,"LKPET02","Lusówko/Pętla",52.4275463000,16.6544373000,C
4118,"SKWRZ01","Skórzewo/Wrzosowa",52.3963080000,16.7857210000,B
291,"ZLZLO02","Złotniki/Złotnicka",52.4856637100,16.8546857500,B
2632,"JMJMM01","Jeziory Małe/",52.1674859700,17.1476164200,D
3156,"WIAT03","Wiatraczna",52.3903910000,16.9677370000,A
4261,"WIPII01","Wiry/PKM II",52.3147400000,16.8669100000,B
4340,"XSHUI02","Koszuty/Huby I",52.2366159371,17.1657188473,C
1592,"PAMI71","Pamiątkowa",52.3871000200,16.9161885900,A
117,"FRRY41","Fredry",52.4093200000,16.9192700000,A
2184,"OWKSP04","Owińska/Ks. Piotrowskiego",52.5167176300,16.9755695100,C
870,"MODLU02","Mosina/Długa",52.2353771098,16.8423068456,C
3687,"ZLPKM02","Złotniki/PKM",52.4951772031,16.8367580017,B
3888,"UNLU41","Unii Lubelskiej",52.3721260400,16.9501551200,A
1190,"KZTJE01","Koziegłowy/Taczaka I",52.4476466600,17.0011361900,B
1861,"MRSZA03","Mrowino/Szkoła",52.5144080000,16.6985220000,B
1136,"KATE01","Katedra",52.4100161100,16.9481008200,A
3592,"KALI02","Kalinowa",52.3686642348,16.9037278244,A
3664,"DZDB01","Dojazd Biocentrum",52.4328438548,16.8991824949,A
2175,"BOPOL01","Bolechowo/Poligonowa",52.5428265900,16.9866620000,C
3028,"RZRII01","Radzewice/II",52.2147007717,16.9847320899,C
550,"STGR02","Strzeszyn Grecki",52.4467820000,16.8742410000,A
1195,"KZPLY01","Koziegłowy/Pływalnia",52.4481570000,16.9922850000,B
1263,"KURL02","Kurlandzka",52.3917866300,16.9838163500,A
401,"STOI01","Stoińskiego",52.4517639100,16.9276784100,A
539,"PDNZ02","Podolańska",52.4367580000,16.8869810000,A
1454,"NADW01","Nad Wierzbakiem",52.4207927400,16.9083536100,A
1056,"OPOL01","Opolska",52.3673960500,16.8956850100,A
2319,"SRTRZ02","Śródka/III",52.2968637400,17.1383730100,B
55,"LUSZ42","Lutycka Szpital",52.4397183900,16.9099956200,A
483,"WISE01","Wilczak/Serbska",52.4314715500,16.9517450500,A
1103,"OPL01","Os. Pod Lipami",52.4312643600,16.9366546100,A
2683,"XNPET01","Konarskie/Pętla",52.2255104696,17.0352767445,C
1001,"KOWA02","Kowalewicka",52.3686819800,16.8458259200,A
2099,"GRSZK02","Góra/Szkolna",52.4820531500,16.6331125800,C
852,"MOKRA01","Mosina/Krasickiego Limaro",52.2324924100,16.8353117600,C
364,"STRO02","Stróżyńskiego",52.4517175200,16.9038872100,A
424,"RUMA01","Rumiankowa",52.4750613500,16.9464343200,A
9,"SOLA41","Sołacz",52.4235161000,16.9034093800,A
2250,"KXBYL01","Komorniki gm.Kleszczewo/Bylin",52.3263061100,17.1250476100,B
1503,"RUSA02","Os. Rusa",52.3886043400,16.9913986800,A
1697,"CMNA41","Cmentarna",52.3851815900,16.8390540000,A
1009,"KOWI01","Kowalewicka Wiadukt",52.3610670800,16.8540189100,A
477,"WLOD02","Włodarska",52.4354973500,16.9470342300,A
638,"LESK02","Leśnych Skrzatów",52.4121380000,16.8519410000,A
518,"TULO02","Tułodzieckiej",52.4519531800,16.8876748900,A
2554,"MGLES02","M. Goślina/Leśna",52.5654680500,16.9909090100,C
448,"BURY01","Burysława",52.4587803100,16.9468127400,A
2990,"RETM01","Retmańska",52.4783993335,16.7708064509,A
165,"PLBE71","Pl. Bernardyński",52.4043220400,16.9370106900,A
1525,"SANT01","Sanocka",52.3611045100,16.9794658700,A
3521,"WROB02","Wróblewskiego",52.3642313000,16.8842616000,A
1557,"GOSP01","Gospodarska",52.3551389401,17.0291671133,A
384,"SZLI01","Szeligowskiego",52.4627051200,16.9179703700,A
3222,"LIWIE01","Lisówki/Wieś",52.3213090000,16.6433730000,C
400,"STOI04","Stoińskiego",52.4507071500,16.9287427700,A
2532,"ZAOZA02","Zalasewo/Os. Zamoyskiego",52.3883140000,17.0687620000,B
1754,"GLTEC01","Głuchowo/Tęczowa",52.3449651909,16.7749975990,C
1055,"OPOL02","Opolska",52.3673783800,16.8970541200,A
3198,"KOWID02","Komorniki/Widokowa",52.3303769288,16.8183995929,B
2613,"KDBOS02","Kórnik/Bnin Osiedle",52.2228421700,17.0869526200,C
585,"REKR01","Rekreacyjna",52.4641255700,16.8004320300,A
4256,"LEPOG01","Łęczyca/Pogodna",52.3169600000,16.8782700000,B
2422,"LOSAR01","Łowęcin/Sarbinowska",52.4187050000,17.1329300000,C
50,"POLA42","Połabska",52.4348514000,16.9323765300,A
530,"STNZ02","Instytut Genetyki",52.4471560000,16.8980240000,A
1265,"ZIEL01","Zieliniec",52.4150040000,17.0446980000,A
1355,"TARN02","Tarnobrzeska",52.3452016400,16.9183718600,A
1366,"ZAKL02","Zaklikowska",52.3494241300,16.9415749700,A
504,"PIAT01","Piątkowska",52.4416282200,16.9125521600,A
312,"SLDZI01","Suchy Las/Teren Aktywnej Edukacji i Sportu",52.4866868400,16.8796299900,B
360,"LEGO02","Łęgowskiego",52.4609955600,16.8927830700,A
610,"WICH01","Wichrowa",52.4322530000,16.8100220200,A
1804,"WABUK02","Walerianowo/Bukowa",52.3145562640,16.7701128455,C
2546,"GAMPE01","Garby Małe/Pętla",52.3617000000,17.0696770000,C
2063,"LKBOS01","Lusówko/Bosmańska",52.4346932400,16.6447847100,C
2433,"PKSAR02","Paczkowo/1 (Sarbinowska)",52.4053690000,17.1575780000,C
2678,"MIMIE02","Mieczewo/",52.2395817482,17.0076948585,C
4178,"MWSLO01","Miękowo/Słowackiego",52.4893155666,16.9828431218,C
4403,"LUPOP04","Luboń/Poprzeczna",52.3392188743,16.8641480394,B
2717,"SSNAL01","Środa Wielkopolska/Niedziałkowskiego/Almarco",52.2221909511,17.2810049326,C
1223,"BROW01","Browarna",52.3992266000,17.0181635400,A
2214,"SWORZ02","Szewce/Orzechowa",52.3588011600,17.0960952400,B
2139,"KXPIS02","Koninko/Pisarska",52.3064370000,17.0135620000,B
2034,"TPROL01","Tarnowo Pdg/Rolna",52.4627846300,16.6713136300,C
3338,"LUNIE01","Luboń/Niepodległości",52.3489700312,16.8913019560,B
3978,"LENA42","Lechicka/Naramowicka",52.4400811731,16.9464362129,A
3845,"NAKOB03","Napachanie/Kobylnicka",52.4838937565,16.7285555470,B
2429,"SBCHM01","Sarbinowo/I (Chmielna)",52.4193950000,17.1555470000,C
3674,"JKMLY01","Jankowo/Młyn",52.4556560000,17.1636080000,C
2048,"RUKLU01","Rumianek/Świetlica",52.4594056800,16.6202422600,C
904,"LUPOD01","Luboń/Podgórna",52.3250799374,16.8793335721,B
1998,"LWSWA01","Lusowo/Swadzimska",52.4314809700,16.7056440400,C
2270,"MELAK02","Mielno/Łąkowa",52.4916912000,17.0673597200,C
4370,"MSOSI01","Mościenica/Osiedle",52.2508373677,17.0547419706,C
191,"WSPO42","Wspólna",52.3772857100,16.9074117500,A
3689,"UMSZ02","Umultowo Szkoła",52.4717619468,16.9402823089,A
2457,"SGPET01","Sokolniki Gwiazdowskie/Łubinowa",52.4147700000,17.1705440000,C
4263,"WIDWO01","Wiry/Dworcowa",52.3124100000,16.8649700000,B
3694,"SARN02","Sarnia",52.4101300000,17.0440530000,A
129,"MAGA42","Małe Garbary",52.4108894900,16.9372306700,A
1967,"BTSKO01","Batorowo/Skośna",52.4206830000,16.7665960000,C
4358,"RBPOL01","Robakowo/Polna",52.3016916008,17.0630357212,B
1224,"BROW02","Browarna",52.3994165700,17.0184791300,A
2215,"GWJES02","Gowarzewo/Jesionowa",52.3531200800,17.1118252100,B
2406,"SDRAC04","Swarzędz/Os. Raczyńskiego",52.3991740000,17.0633550000,B
2844,"PLPLD02","Plewiska/Południowa",52.3741747100,16.8203774300,B
702,"ZKSWI02","Zakrzewo/Świerkowa",52.3987123100,16.7160926900,C
1461,"KOSC02","Kościelna",52.4135688200,16.9046633600,A
1918,"ZOLIP02","Złotkowo/Lipowa",52.5071870500,16.8349642400,B
140,"SWMI41","Św. Michała",52.4090145800,16.9623295000,A
3698,"KOKRY02","Komorniki/Kryształowa",52.3478390000,16.7833010000,B
2086,"TPZIE02","Tarnowo Pdg/Zielona",52.4676634200,16.6570464800,C
43,"PZEL42","Przełajowa",52.4251718300,16.9446484800,A
3585,"KOPOE02","Komorniki/Os. Poetów ",52.3235908903,16.8052506039,B
488,"SERB03","Serbska",52.4324866200,16.9455849500,A
3016,"SNSAS02","Sasinowo/",52.2606260785,16.9048198841,C
78,"DRZE41","Drzewieckiego",52.3968382200,16.8675472100,A
3250,"KDTFP02","Kórnik/TFP",52.2570018862,17.0844932184,C
2935,"JSNZ01","Jaśkowiaka",52.4886360000,16.9146980000,A
2665,"SCSZK01","Szczodrzykowo/Szkoła",52.2852619500,17.1028057700,C
2657,"DZSLO01","Dziećmierowo/Słoneczna",52.2668494800,17.0982606800,C
1963,"TPMAR01","Tarnowo Pdg/Marianowska",52.4549380500,16.7018251900,C
1145,"ZAWA03","Zawady",52.4148157700,16.9571803800,A
1377,"SWAC01","Św. Antoniego Cmentarz",52.3629986400,16.9379452500,A
2621,"BJMJE02","Błażejewo/Mikołajczyka I",52.2172539400,17.0982873900,C
231,"RSTA45","Rondo Starołęka",52.3793126100,16.9426679000,A
2522,"SDPRO01","Swarzędz/Zielona",52.3967190000,17.0759180000,B
2185,"OWKSP03","Owińska/Ks. Piotrowskiego",52.5165575700,16.9751442200,C
537,"DOZD01","Dojazd",52.4356658500,16.9032891000,A
3597,"LUPKM04","Luboń/PKM",52.3445502543,16.8916118649,B
1459,"URBA02","Urbanowska",52.4217549800,16.9196918200,A
1677,"HEWI04","Hetmańska Wiadukt",52.3827155400,16.9280438000,A
4082,"CMEP01","Cmentarna Parking",52.3901158738,16.8305450676,A
696,"DOKOS01","Dopiewo/Kościół",52.3579512700,16.6763361100,C
1974,"BTPOR02","Batorowo/Poranek",52.4218438200,16.7399436000,C
2213,"KZSZK01","Koziegłowy/Szkoła",52.4465793440,16.9895135404,B
1501,"OSZO02","Os. Zodiak",52.3912530400,16.9883900100,A
1978,"BTZAK02","Batorowo/Zakrzewska",52.4241047600,16.7197069900,C
1235,"BORO01","Borówki",52.3896412700,17.0317914200,A
4168,"KOMAL01","Komorniki/Malinowa",52.3469100000,16.8171300000,B
4203,"GWSKR01","Gowarzewo/Siekierecka Rondo",52.3609880000,17.1321360000,B
2050,"LUOSK02","Luboń/Ośrodek Kultury",52.3266700000,16.8784900000,B
2710,"PEPET02","Pętkowo/",52.2108737795,17.2560203777,C
4181,"KASTO02","Kamionki/Stokrotkowa",52.2904669500,16.9747117000,B
4058,"PLSTS01","Plewiska/Szkoła Nr 2",52.3734100000,16.8088000000,B
1743,"PLSTP02","Plewiska/Straż Pożarna",52.3653363700,16.8078368100,B
827,"DOWI02","Dolna Wilda",52.3696606600,16.9157519700,A
1661,"POLW02","Półwiejska",52.3997682900,16.9283692100,A
800,"ZAME02","Zamek",52.4085773200,16.9176634700,A
2233,"TRTOD01","Trzek/Topolowa",52.3474908081,17.1532634638,B
2496,"JSRTR01","Jasin/Rabowicka III",52.3999250000,17.0966630000,B
425,"RUMA02","Rumiankowa",52.4758266200,16.9462312300,A
1713,"ULAN01","Ułańska",52.3991892000,16.8941675000,A
525,"TRUS02","Truskawiecka",52.4424310000,16.8866650000,A
775,"RYCE04","Rycerska",52.4040272400,16.8692931700,A
367,"WRTV02","Wieża RTV",52.4573215300,16.9041604300,A
187,"ROLN42","Rolna",52.3839405700,16.9183777900,A
617,"BUZA02","Bużańska",52.4234695100,16.8663402700,A
1960,"SWAUC02","Swadzim/Auchan",52.4414867500,16.7626139200,B
891,"PUZRO01","Puszczykowo/Źródlana",52.2932731600,16.8621866100,C
3919,"DEWIA02","Dębogóra/Wiązowa",52.4989976345,17.0761551951,C
3351,"PLSTP03","Plewiska/Straż Pożarna",52.3655447676,16.8079955107,B
998,"SYCO02","Sycowska I",52.3643397200,16.8390925000,A
407,"OSCH01","Os. Chrobrego",52.4523531300,16.9119273400,A
423,"WDNZ01","Widłakowa",52.4722248500,16.9474484300,A
598,"CZKA02","Człopska",52.4350790000,16.8155120000,A
1058,"KACZ01","Kacza",52.3804992200,16.8621902600,A
1452,"SLAS01","Śląska",52.4242723400,16.9092110800,A
1980,"LWBOC01","Lusowo/Boczna",52.4216198200,16.7179949900,C
753,"KRAS02","Kraszewskiego",52.4086350800,16.9018666600,A
1764,"PLSZK02","Plewiska/Szkoła Nr 1",52.3618800000,16.8084700000,B
667,"ROLW01","Rondo Ławickich Wydm",52.3968425900,16.8034918500,A
2200,"CEOPP01","Czerwonak/Os. Przylesie PKM",52.4805430700,16.9785901400,B
1824,"KCPET01","Kicin/Pętla",52.4655540800,17.0205516500,B
3281,"ARNI02","Arnikowa",52.4915901901,16.9420237014,A
1210,"TERM01","Termalna",52.4091242700,16.9715842800,A
509,"LUSZ02","Lutycka Szpital",52.4403618500,16.9081700400,A
2082,"GBWIE01","Grzebienisko/Wierzbowa",52.4329071300,16.5316423700,C
3174,"DOWJE01","Dopiewo/Więckowska I",52.3679249590,16.6665147505,C
1418,"OBOH02","Os. Bohaterów II Wojny Światowej",52.3828974700,16.9475344600,A
1825,"KCSZK01","Kicin/Szkoła",52.4629347900,17.0185013200,B
1842,"RKROL01","Rokietnica/Rolna",52.5076521200,16.7554776000,B
3626,"BOPKM01","Bolechowo-Os./PKM",52.5401473401,16.9784010952,C
4267,"LEZDR02","Łęczyca/Zdrojowa",52.3069900000,16.8694000000,B
2424,"LOPOP01","Łowęcin/II (Poprzeczna)",52.4198620000,17.1413830000,C
2068,"LKGRA02","Lusówko/Grabowa",52.4331928100,16.6396758300,C
1388,"STAW01","Starołęcka Wiadukt",52.3505683100,16.9208113400,A
27,"KURP42","Kurpińskiego",52.4507481400,16.9194124100,A
86,"MODW71","Most Dworcowy",52.4040015200,16.9110290500,A
3151,"OJAG03","Os. Jagiellońskie",52.3941260000,16.9586210000,A
3718,"DHKLO04","Dachowa/Klonowa",52.2976754900,17.0984648600,B
795,"ALSO01","Aleje Solidarności",52.4362053000,16.9200216900,A
2392,"SDGRU02","Swarzędz/Cieszkowskiego",52.4118990000,17.0850860000,B
2405,"SDRAC03","Swarzędz/Os. Raczyńskiego",52.3999340000,17.0647660000,B
2160,"PRPLN01","Promnice/Północna",52.5413062000,16.9655419200,C
1035,"JESI02","Jesionowa",52.3699119500,16.8928968800,A
792,"OPW02","Os. Powstańców W-wy",52.4354680000,16.9137390000,A
2647,"KDBAK02","Kórnik/Bnin Biernacka",52.2338924800,17.0960409300,C
1778,"KOMAG02","Komorniki/Magazynowa",52.3454522855,16.8273869490,B
940,"LUPSI01","Luboń/Park Siewcy",52.3332823344,16.8894425031,B
1706,"GWAR42","Gwarna",52.4078930200,16.9213767300,A
2199,"CEELE02","Czerwonak/Elewator",52.4864096400,16.9780642500,B
751,"SZYL02","Szylinga",52.4078811500,16.9000950500,A
1076,"KORD04","Kordeckiego",52.3872202000,16.8804214000,A
4099,"MACZ01","Maczka",52.4237505141,16.9134678163,A
3580,"DETU02","Dębiec Tunel PKM",52.3698352000,16.9029113000,A
2138,"KXDZI01","Koninko/Dziennikarska",52.3091129364,17.0163132755,B
1698,"CMNA42","Cmentarna",52.3850653100,16.8391843000,A
20,"NADW41","Nad Wierzbakiem",52.4214233900,16.9080444000,A
3179,"FIALK02","Fiałkowo/",52.3752089907,16.6567304859,C
2019,"KBLIP01","Kobylniki/Lipowa",52.4725984206,16.7485077727,B
1873,"RKTRA01","Rokietnica/Trakt Napoleoński",52.5131591300,16.7310942900,B
4217,"WOLC02","Wołczyńska",52.3741000000,16.8321500000,A
2560,"MGCME01","M. Goślina/Cmentarz",52.5710909200,17.0079356000,C
2674,"XLSKR01","Kromolice/Skrzyżowanie",52.2661476575,17.1732894774,C
1558,"SZWO01","Szczepankowo",52.3645901000,17.0093816800,A
2969,"ZLPNL01","Złotniki/Park Nickel",52.4857280755,16.8500988391,B
3824,"CERSP02","Czerwonak/Rondo Spachacza",52.4641340100,17.0006850200,B
2206,"CESZK01","Czerwonak/Szkolna",52.4622358177,16.9827250613,B
2192,"OWPAL02","Owińska/Pałac",52.5130679600,16.9753961500,C
60,"ZERO72","Żeromskiego",52.4155430100,16.8908253300,A
3284,"RKAP46","Rondo Kaponiera",52.4077730000,16.9132030000,A
2692,"CNRUM01","Czmoniec/Rumiankowa",52.1806533947,17.0182612739,C
1038,"BOWE02","Bohaterów Westerplatte",52.3710210800,16.8856858500,A
1320,"GLKO02","Głuszyna Kościół",52.3199695300,16.9510315300,A
855,"DNDYM02","Dymaczewo Nowe/",52.2288196900,16.7616387100,C
3345,"SIWIE02","Sierosław/Dworska ",52.4046070000,16.6753940000,C
900,"LULAS02","Luboń/Lasek",52.3216430000,16.8861590000,B
1068,"JUGO01","Jugosłowiańska",52.3911291500,16.8659712900,A
2291,"CEGAJ01","Czerwonak/Gajowa",52.4709332500,16.9958905100,B
422,"WDNZ02","Widłakowa",52.4725384800,16.9472832300,A
1271,"ANST02","Antoninek PKM",52.4097310900,17.0293978700,A
2933,"KICZE01","Kiekrz/Czereśniowa",52.4985931340,16.7506476194,B
4298,"KRPOS03","Krosno/Piaskowa/Os. Miodowe",52.2275997396,16.8253504052,C
15,"SLKA42","Słowiańska",52.4271177700,16.9192237100,A
515,"OBOR02","Obornicka",52.4461120000,16.9081950000,A
673,"SKGIM02","Skórzewo/Kozierowskiego Szkoła",52.3908110000,16.7768990000,B
1462,"JEZY01","Jeżycka",52.4162073700,16.9058398300,A
481,"WIML02","Wilczy Młyn",52.4372446300,16.9532701500,A
1510,"KRGO01","Krzywoustego",52.3742028400,16.9812218200,A
3302,"CDPOW02","Ceradz Dolny/Powstańców Wielkopolskich",52.4299404600,16.5831017300,C
1301,"KALIS02","Kamionki/Lisia",52.2840542800,17.0061699400,B
1541,"SIEW02","Siewierska",52.3405578000,17.0054267300,A
2634,"JWDOL02","Jeziory Wielkie/Doliwiec Leśny",52.1746370500,17.1401624000,D
3822,"MWSTO01","Miękowo/Stokrotkowa",52.4902416133,16.9895430556,C
1971,"BTWID02","Batorowo/Widok",52.4218560000,16.7467490000,C
2275,"WEJWO02","Wierzonka/Jednostka Wojskowa",52.4852556000,17.0806318700,C
1850,"RKSZK02","Rokietnica/Szkoła",52.5098583400,16.7401864200,B
2338,"XOLES01","Kobylnica/Leśna",52.4546510000,17.0992000000,B
2845,"PLPLD01","Plewiska/Południowa",52.3738839200,16.8201127600,B
612,"TATR01","Tatrzańska",52.4295369100,16.8477457600,A
536,"WRSZ02","Wrzoska Szpitale",52.4379240000,16.9041070000,A
447,"BURY02","Burysława",52.4583754800,16.9466870000,A
1221,"ZIEM02","Ziemowita",52.4030322400,17.0199875800,A
2001,"LWKOS01","Lusowo/Kościół",52.4329532300,16.6980826400,C
3334,"WYSZP01","Wysogotowo/Szparagowa",52.4084046254,16.7933560078,B
449,"BOWA02","Bogusława",52.4566334300,16.9480038300,A
2197,"MWKOL01","Miękowo/Kolejowa",52.4988289900,16.9763707800,C
2017,"WLKE01","Wielkie",52.4653484530,16.7592217637,B
1684,"GORC41","Górczyn PKM",52.3814366000,16.8810077200,A
913,"LUTAR02","Luboń/Targowa",52.3383528026,16.8746259094,B
1615,"RJEZ72","Rynek Jeżycki",52.4120324500,16.9035799100,A
1174,"BOBA01","Bogucin Bałtycka",52.4302054700,17.0112901700,A
3106,"KNKSH01","Konarzewo/Ks. Hartlieba",52.3433324830,16.6949378175,C
2685,"RDOSP02","Radzewo/Strażnica",52.2092632681,17.0210209383,C
2544,"GAMTU02","Garby Małe/Tulecka",52.3608470000,17.0751590000,C
1924,"WYPKN01","Wysogotowo/Piękna",52.4054125200,16.7865839100,B
1817,"PWPAW01","Pawłowice/Pawłowicka",52.4879881900,16.7987727600,B
2492,"JSRJE02","Swarzędz/Rabowicka",52.4014190000,17.0855180000,B
111,"SWCZ72","Św. Czesława",52.3975813800,16.9213722500,A
2161,"TUZDB01","Tulce/Zadęby",52.3451816900,17.0915260500,B
1577,"PROM02","Promienista",52.3961334600,16.8811480700,A
1012,"LERC01","Lerczakówny",52.3637491100,16.8526988000,A
3588,"GLTEC04","Głuchowo/Tęczowa",52.3452700000,16.7758200000,C
2420,"LOLIP02","Łowęcin/Lipowa",52.4136140000,17.1214650000,C
4449,"BLBOL02","Bolesławiec/",52.2124661378,16.7697881791,C
538,"DOZD02","Dojazd",52.4365693300,16.9011971400,A
2006,"BNKLO01","Baranowo/Klonowa",52.4418330000,16.7857500000,B
3184,"WKGRO01","Więckowice/Gromadzka",52.3955110000,16.6379850000,C
1610,"CZ I02","Os. Czecha I",52.3824873200,16.9819436900,A
81,"WEGO41","Węgorka",52.3920000000,16.8578300000,A
1627,"WYKO01","Wykopy",52.3712425878,16.8635577369,A
305,"SLKOS02","Suchy Las/Kościół",52.4723317000,16.8780680300,B
4349,"BELAS04","Biernatki/Laskowa",52.2322934551,17.1045339895,C
1862,"MRSZA04","Mrowino/Szkoła",52.5143312600,16.6985976700,B
1346,"RYDZ02","Rydzowa",52.3340806100,16.9119561700,A
592,"KRZY02","Krzyżowniki",52.4418361500,16.8074558100,A
1929,"WYZBO02","Wysogotowo/Zbożowa",52.4170901100,16.7751749500,B
3,"SOB41","Os. Sobieskiego",52.4639504200,16.9178214900,A
3068,"LUSRY02","Luboń/Strumykowa",52.3444420093,16.8979428596,B
2310,"ZNOSP01","Zimin/Świetlica OSP",52.2945833900,17.1582719500,B
626,"SZPI04","Szpitalna",52.4110860000,16.8778320000,A
832,"DENZ01","Dębina",52.3785911400,16.9269882600,A
655,"EDWA01","Edwardowo",52.4094642300,16.8473731400,A
4242,"SZKA01","Szczawnicka",52.4410500000,16.8866840000,A
321,"SZKL01","Szklarniowa",52.4775378300,16.9066457200,A
629,"SWOB02","Swoboda",52.4118230000,16.8726340000,A
1868,"MRGNI01","Mrowino/Gniewka",52.5155630000,16.7182650000,B
3081,"MGPOL01","M. Goślina/Polna",52.5785668184,17.0180399105,C
1354,"OZAR02","Ożarowska",52.3325719800,16.9323576500,A
456,"OLOK01","Os. Łokietka",52.4480726000,16.9437394000,A
2100,"GRPET02","Góra/Pętla",52.4854372400,16.6294331500,C
2838,"GALC02","Gałczyńskiego",52.4065310526,16.8507924445,A
3977,"SERB41","Serbska",52.4326420000,16.9463850000,A
1674,"ROLN04","Rolna",52.3838415000,16.9182885600,A
2803,"TERM03","Termalna",52.4086748457,16.9724242820,A
749,"MATE01","Matejki",52.4048597900,16.8999455200,A
984,"LUOLU02","Luboń/Os. Lubonianka",52.3490692456,16.8810454495,B
2282,"KFDWR01","Karłowice/Dwór",52.4940860000,17.1003210000,C
3018,"RIMUZ02","Rogalin/Muzeum",52.2348074184,16.9336709205,C
309,"SLSTR01","Suchy Las/Strażacka",52.4751292700,16.8836674700,B
595,"MIED02","Międzyzdrojska",52.4352223500,16.8088744400,A
4210,"PLMIE01","Plewiska/Miętowa",52.3732000000,16.8133500000,B
208,"ZIII42","Żegrze III",52.3833064700,16.9693135900,A
3951,"RRAT71","Rondo Rataje",52.3946430000,16.9496830000,A
1780,"KNPET02","Konarzewo/Pętla",52.3347636800,16.7172029700,C
284,"ZLZIE01","Złotniki/Zielona",52.4920706700,16.8420290300,B
506,"TROJ01","Trójpole",52.4382450600,16.9117682600,A
3575,"KLIM02","Klimontowska",52.3390660000,16.9213010000,A
2525,"SDPOG02","Swarzędz/Pogodna/Kórnicka",52.3995840000,17.0778710000,B
1464,"OJAG01","Os. Jagiellońskie",52.3936171100,16.9562191900,A
3554,"SZPKM01","Szreniawa/PKM",52.3164608200,16.7985359100,C
1156,"BALA02","Bałtycka",52.4254561100,16.9778232100,A
1761,"PLSKO01","Plewiska/Szkolna",52.3577726400,16.8073671600,B
611,"TATR02","Tatrzańska",52.4290282800,16.8485993900,A
3833,"MOGI42","Mogileńska",52.4097647200,16.9923322400,A
3981,"RYWI71","Rynek Wildecki",52.3929092278,16.9204481437,A
3583,"WIPKM01","Wiry/PKM I",52.3160907461,16.8677931576,B
1851,"KICZE02","Kiekrz/Czereśniowa",52.4987834900,16.7504222400,B
918,"LURAT02","Luboń/Ratajskiego",52.3400849290,16.8922759552,B
430,"LOPI02","Łopianowa",52.4867720900,16.9424779000,A
2020,"NAKOB02","Napachanie/Kobylnicka",52.4841275465,16.7291606071,B
762,"BRZA01","Brzask",52.4081418900,16.8754767800,A
4366,"CNPIW01","Czmoniec/Piwoniowa",52.1696426039,17.0258171464,C
3786,"PSWIE01","Prusinowo/Wieś",52.1993276100,17.1263883100,C
169,"LAKO41","Łąkowa",52.4019500000,16.9342500000,A
4042,"OGDY12","Ogrody",52.4162943761,16.8814143886,A
2218,"GWJSN02","Gowarzewo/Jesienna",52.3553068900,17.1162356400,B
71,"RONJ74","Rondo Nowaka-Jeziorańskiego",52.4018848800,16.8891387700,A
1733,"PLSLO01","Plewiska/Słoneczna",52.3662569200,16.8307937300,B
2442,"PKPOL01","Paczkowo/Polna",52.3929050000,17.1570600000,C
1367,"DEKA02","Dęblińska",52.3518709300,16.9422543300,A
1306,"KALAK02","Kamionki/Łąkowa",52.2883077800,16.9818029200,B
991,"LUCME02","Luboń/Cmentarz",52.3492496349,16.8499807785,B
936,"LUZSK02","Luboń/Zespół Szkół",52.3481402292,16.8963490427,B
2517,"RASWI01","Rabowice/Świerkowa",52.3771890000,17.1088480000,C
1281,"KATO01","Katowicka",52.4019205900,16.9631121000,A
357,"SYPU02","Synów Pułku",52.4598768800,16.8743058000,A
1933,"PMOLS02","Przeźmierowo/Kasztanowa",52.4184027000,16.7791018800,B
2904,"DEKAS04","Dębogóra/Kasztanowa",52.4914314000,17.0959654100,C
1887,"RTJOD02","Rostworowo/Jodłowa",52.5246939200,16.7500714500,B
901,"LULAS01","Luboń/Lasek",52.3225891395,16.8867123538,B
4374,"SLSUC91","Suchy Las/Sucha",52.4710333922,16.8907706838,B
579,"KIKO02","Kiekrz Kościół",52.4773571300,16.7842541400,A
1247,"SDKUP04","Swarzędz/Kupiecka",52.3976485142,17.0708424723,B
1591,"PAMI72","Pamiątkowa",52.3871940000,16.9164910000,A
2058,"JNPRZ01","Jankowice/Przemysłowa",52.4550848200,16.6408302800,C
3073,"LUZSK03","Luboń/Zespół Szkół",52.3482935634,16.8972492541,B
3297,"JAI02","Jasielska I",52.4464170000,16.8979870000,A
2101,"GRPET01","Góra/Pętla",52.4855115500,16.6295712900,C
3080,"MGPOL02","M. Goślina/Polna",52.5782079136,17.0178037894,C
1455,"NADW02","Nad Wierzbakiem",52.4207392100,16.9086202400,A
1753,"GLTEC02","Głuchowo/Tęczowa",52.3448569470,16.7769308398,C
4059,"PLSTS02","Plewiska/Szkoła Nr 2",52.3727931331,16.8078774502,B
1642,"PLWI43","Pl. Wielkopolski",52.4102569400,16.9316672700,A
2666,"RNWIE02","Runowo/Wieś",52.2814345957,17.1217708236,C
2699,"DCSKR01","Dębiec/Skrzyżowanie",52.2383610878,17.1575874299,C
1151,"RWSC01","Rynek Wschodni",52.4208191000,16.9700531800,A
2135,"BRLAK02","Borówiec/Łąkowa",52.2829140000,17.0452720000,B
822,"KASZ01","Kasztanowa",52.3658650000,16.9039460000,A
2251,"KXBYL02","Komorniki gm.Kleszczewo/Bylin",52.3263893400,17.1247081400,B
3227,"DOOSR03","Dopiewo/Ośrodek Zdrowia",52.3575918342,16.6834564332,C
2644,"BELAS02","Biernatki/Laskowa",52.2263878000,17.1070942600,C
1549,"OSNZ02","Ostrowska",52.3522132200,17.0027901000,A
1961,"SAWIA01","Sady/Wiadukt",52.4487056400,16.7246752600,C
1787,"COJES02","Chomęcice/Jesionowa",52.3305800000,16.7583600000,C
4350,"BEGAW01","Biernatki/Gawrycha",52.2357116870,17.1028811424,C
863,"MORON02","Mosina/Rondo",52.2433488100,16.8476093900,C
2451,"PKFOL02","Paczkowo/Folwarczna",52.4026180000,17.1636700000,C
3875,"CZ I91","Os. Czecha I",52.3823295930,16.9835957575,A
2538,"ZAOSL01","Zalasewo/Os. Leśne",52.3835170000,17.0601140000,B
3101,"KNSEZ02","Konarzewo/Sezamkowa",52.3374416047,16.7044416884,C
2237,"KLPOL01","Kleszczewo/Polna",52.3323756600,17.1913852400,B
887,"PUKOS02","Puszczykowo/Kościelna",52.2868372500,16.8561380700,C
2155,"TUKOS01","Tulce/Kościół",52.3420328900,17.0805671900,B
865,"MODWK01","Mosina/Dworzec Kolejowy",52.2413403700,16.8514785900,C
885,"PURON03","Puszczykowo/Rondo Heigelmanna",52.2805694800,16.8514030200,C
2566,"MGPKM01","M. Goślina/PKM",52.5748699583,17.0150441251,C
244,"CHRYN02","Chludowo/Rynek",52.5552510800,16.8493123200,C
707,"DBBUK02","Dąbrowa/Szkolna",52.4037507600,16.7398011500,C
2018,"KBLIP02","Kobylniki/Lipowa",52.4722206602,16.7491423479,B
2044,"RUNOW02","Rumianek/Nowa I",52.4632074200,16.6385049000,C
154,"RRAT75","Rondo Rataje",52.3960300000,16.9490900000,A
522,"DRUS02","Druskienicka",52.4446149700,16.8877859600,A
3894,"TADE02","Tadeuszak",52.3747800000,16.9538800000,A
4432,"MIRA02","Mirabelkowa",52.3662620000,17.0364240000,A
3665,"SWMN71","Święty Marcin",52.4065150000,16.9244220000,A
3815,"ROWIC02","Rosnówko/Wichrowa",52.3062691410,16.7619371553,C
2198,"CEELE01","Czerwonak/Elewator",52.4859394900,16.9779277700,B
1216,"BONY01","Bożeny",52.4106652900,17.0160726900,A
2113,"JRSKL02","Jaryszki/Składowa",52.3299190000,17.0162140000,B
1239,"SDSZU02","Swarzędz/Szumana",52.3986846022,17.0462711292,B
3842,"ROPKM01","Rosnówko/PKM",52.2970500000,16.7678300000,C
3212,"KNCME02","Konarzewo/Cmentarz",52.3331360000,16.7040110000,C
1746,"PLENE02","Plewiska/Stacja Energetyczna",52.3711354000,16.7810500900,B
1448,"ZERO02","Żeromskiego",52.4165557600,16.8918269900,A
2148,"BBBBK01","Babki/Babicka",52.3134098808,16.9378177959,B
1463,"JEZY02","Jeżycka",52.4165408700,16.9067347000,A
2472,"SDTRA01","Swarzędz/Tysiąclecia",52.4024090000,17.0735500000,B
688,"PAPAL01","Palędzie/Leśna",52.3690806300,16.7357758500,C
3008,"PUJAR02","Puszczykowo/Jarosławska",52.2800976508,16.8481213256,C
85,"BALT42","Bałtyk",52.4065000000,16.9110600000,A
1075,"KORD02","Kordeckiego",52.3862784200,16.8795714400,A
476,"LENA01","Lechicka/Naramowicka",52.4404030000,16.9470070000,A
1856,"PBKOL01","Przybroda/Kolejowa",52.5206080000,16.6628440000,B
1766,"MT71","Most Teatralny",52.4100216300,16.9131850300,A
4081,"KWNY01","Kurcewiczówny",52.3915305945,16.8390306665,A
4292,"KKGRZ01","Krosinko/Grzybowa",52.2315699860,16.8060917850,C
1336,"CZGLU02","Czapury/Głuszynka",52.3183083400,16.9129405900,B
2120,"SCSAR01","Szczytniki/Sarnia",52.2994680000,17.0113330000,B
708,"DBWIK01","Dąbrowa/Krótka",52.4008825100,16.7447766900,C
1853,"RKKAL01","Rokietnica/Os. Kalinowe",52.5050900300,16.7419787600,B
98,"GLHE46","Głogowska/Hetmańska",52.3902737400,16.8935651400,A
3811,"PINA02","Piękna",52.4176452192,16.8761754536,A
1073,"SCIE02","Ściegiennego",52.3904857400,16.8748599000,A
993,"SYCH02","Sycowska Centrum Handlowe",52.3547913800,16.8383158400,A
2469,"SDARM02","Swarzędz/Armii Poznań/Szkoła",52.3955270000,17.0667990000,B
1585,"IPNZ01","IPN",52.3798476600,16.9145805300,A
4160,"STAR07","Starołęka PKM",52.3661939234,16.9291993788,A
4430,"MICH02","Michałowo",52.3720570000,17.0341110000,A
2962,"KOWIS01","Komorniki/Wiśniowa",52.3478051800,16.8116992600,B
1878,"NAPAR01","Napachanie/Park",52.4863940000,16.7282120000,B
2855,"TRLIP02","Trzek/Lipowa",52.3567844700,17.1704771500,B
1361,"TOMA02","Tomaszowska",52.3436345800,16.9344514300,A
1568,"DRUZ02","Drużynowa",52.3803335100,16.8974728700,A
2611,"KDBRY02","Kórnik/Bnin Rynek",52.2308231300,17.0954243900,C
498,"SUSZ02","Suszki",52.4460798400,16.9140549500,A
644,"ZLOT01","Złotowska",52.4132556400,16.8323753400,A
528,"STLI01","Strzeszyńska Lisner",52.4488588600,16.8952420300,A
2242,"KLSTR01","Kleszczewo/Baza ZK",52.3333725613,17.1635642431,B
923,"LUSTR01","Luboń/Streicha",52.3480951309,16.8904902901,B
2587,"BVBYT01","Bytyń/",52.4871080000,16.5074540000,C
2229,"GWTAN01","Tanibórz/Wschód",52.3517446700,17.1469443700,B
392,"OSBA04","Os. Batorego",52.4595441500,16.9266402500,A
2261,"KCROL01","Kicin/Rolna",52.4698016800,17.0257464600,B
2779,"PUNAD02","Puszczykowo/Nadwarciańska",52.2660436900,16.8726870200,C
3223,"TLPET01","Trzcielin/Pętla",52.3222640000,16.6794880000,C
3303,"CDPOW01","Ceradz Dolny/Powstańców Wielkopolskich",52.4297049300,16.5826634500,C
770,"OPAL02","Opalenicka",52.4047812700,16.8875152200,A
4010,"NARA71","Naramowice",52.4459420000,16.9452520000,A
274,"ZOWIE02","Złotkowo/Wieś",52.5115741800,16.8391927100,B
250,"CHPKM01","Chludowo/PKM",52.5599405900,16.8271220300,C
641,"FOED01","Folwark Edwardowo",52.4125853000,16.8465094400,A
209,"OCZ71","Os. Czecha",52.3861726200,16.9754798600,A
1204,"CZEA02","Czerwonacka",52.4348153317,16.9800391847,A
4371,"CMLIP01","Czmoń/Lipowa",52.1855512340,17.0514657915,C
758,"BUKO02","Bukowska",52.4093240000,16.8882580000,A
1751,"GLSPO01","Głuchowo/Spokojna",52.3487174844,16.7718837531,C
443,"BIJDW02","Biedrusko/Jednostka Wojskowa",52.5403913300,16.9447178600,B
759,"GROD01","Grodziska",52.4100725300,16.8858516400,A
2527,"ZAGLE02","Zalasewo/Glebowa",52.3895950000,17.0753630000,B
3586,"KOKOM02","Komorniki/Os. Kompozytorów ",52.3210729331,16.8053981795,B
627,"SZPI03","Szpitalna",52.4107840000,16.8804130000,A
2503,"RADEB01","Rabowice/Dębowa",52.3866570000,17.1167360000,C
650,"WIEC02","Wieczorynki",52.4083770000,16.8410330000,A
2589,"BVBYT02","Bytyń/",52.4873340000,16.5044950000,C
2462,"SDPIA01","Swarzędz/Piaski",52.4078630000,17.0752130000,B
3105,"KNKSH02","Konarzewo/Ks. Hartlieba",52.3431159868,16.6952477264,C
567,"INTP02","Instytut Technologiczno-Przyrodniczy",52.4560630000,16.8556850000,A
246,"CHTYS01","Chludowo/Tysiąclecia",52.5593526200,16.8384256000,C
1059,"MRAG02","Mrągowska",52.3812679800,16.8648346700,A
1387,"DZIE02","Dziedzicka",52.3543038500,16.9228102900,A
1312,"DAPIO02","Daszewice/Piotrowska",52.2991004200,16.9583337300,B
257,"ZIPOG02","Zielątkowo/Pogodna",52.5598768500,16.8048330200,C
2617,"KDWIT02","Kórnik/Bnin Konarska",52.2291462787,17.0870905496,C
679,"DKLAS01","Dąbrówka/Las",52.3871610000,16.7455910000,C
1087,"ARCI01","Arciszewskiego",52.3923167400,16.8853747500,A
2687,"RDPOM01","Radzewo/Pomorska",52.2031283137,17.0308937482,C
3211,"KNCME01","Konarzewo/Cmentarz",52.3332330000,16.7039650000,C
774,"RYCE02","Rycerska",52.4039720100,16.8666057200,A
686,"PANOW01","Palędzie/Nowa",52.3723335300,16.7379570600,C
2180,"BOPRZ02","Bolechowo/Przejazd",52.5330406000,16.9796078500,C
608,"LEKA01","Leśnowolska",52.4319771100,16.8222369900,A
2329,"WZKOS02","Wierzenica/Kościół",52.4626790000,17.0697680000,C
1122,"WILC02","Wilczak",52.4272747700,16.9475104800,A
728,"ROSK02","Rondo Skubiszewskiego",52.3904582944,16.8552492287,A
1880,"RKMIC02","Rokietnica/Mickiewicza",52.5159209100,16.7394621600,B
2961,"KOKSW04","Komorniki/Ks.Wawrzyniaka",52.3474319100,16.8046777600,B
1701,"JUNI42","Junikowo",52.3834200000,16.8345000000,A
1244,"SDCEG01","Swarzędz/Os. Cegielskiego",52.4010720000,17.0590580000,B
2411,"SDCEH02","Swarzędz/Wrzesińska",52.4093580000,17.0855180000,B
4412,"PLJAN02","Plewiska/Jantarowa",52.3652382184,16.8235499825,B
2126,"KXLAS02","Koninko/Las",52.2997180000,17.0308230000,B
924,"LUSTR02","Luboń/Streicha",52.3486182692,16.8902246539,B
2089,"GRCIE01","Góra/Ciepła",52.4752718300,16.6427622100,C
4212,"PLZAK02","Plewiska/Zakładowa",52.3692502374,16.8307369159,B
3693,"SARN01","Sarnia",52.4089180000,17.0445280000,A
14,"BONN41","Bonin",52.4303010700,16.9108599400,A
2236,"KLPAR01","Kleszczewo/Park",52.3333434700,17.1718193900,B
173,"AWF73","AWF",52.3990100000,16.9360200000,A
921,"LUPKM01","Luboń/PKM",52.3451906983,16.8921283796,B
3134,"JAII02","Jasielska II",52.4440080000,16.8937570000,A
251,"CHPKM02","Chludowo/PKM",52.5600370600,16.8263996400,C
3305,"LKKOS01","Lusówko/Kościół ",52.4251660000,16.6448330000,C
783,"WOPO01","Wojska Polskiego",52.4284195100,16.9006102000,A
1227,"PIWN03","Piwna",52.3921488500,17.0145561600,A
503,"PIAT02","Piątkowska",52.4414305600,16.9122533500,A
1835,"KIZIE01","Kiekrz/Zielona",52.4925451800,16.7725451600,B
698,"ZKZAC02","Zakrzewo/Zacisze",52.3900401000,16.7384438100,C
597,"CZKA01","Człopska",52.4351845000,16.8156774100,A
961,"KOLUB02","Komorniki/Lubońska",52.3391737668,16.8347214580,B
2434,"PKDWO02","Paczkowo/Szkoła (Dworska)",52.4022850000,17.1588230000,C
163,"PP71","Politechnika",52.4005864300,16.9487672600,A
633,"KLRA01","Kolorowa",52.4120368300,16.8635587600,A
1215,"MILO01","Miłostowo",52.4102493000,17.0043568700,A
2662,"SCPKM03","Szczodrzykowo/Kórnik PKM",52.2815409700,17.1044174400,C
1843,"RKPKM01","Rokietnica/Węzeł Przesiadkowy",52.5117320000,16.7533180000,B
11,"UP41","Uniwersytet Przyrodniczy",52.4263916700,16.9059923800,A
1286,"KOWO01","Kopiec Wolności",52.3982756800,16.9755023100,A
1943,"BNRUB02","Baranowo/Os. Rubinowe",52.4290000000,16.7995000000,B
1176,"JANZ02","Janikowska ",52.4317080300,17.0020624300,A
2968,"ZLOGP02","Złotniki/Os. Grzybowe PKM",52.4842624248,16.8448008738,B
791,"SWLE01","Św. Leonarda",52.4340309600,16.9134424000,A
1958,"SWKLA02","Swadzim/Kładka",52.4411957800,16.7470674700,B
2993,"UNRU01","Unruga",52.4781924923,16.7646673046,A
1102,"POLW01","Półwiejska",52.4002463500,16.9264945900,A
2432,"PKSAR01","Paczkowo/1 (Sarbinowska)",52.4052040000,17.1577180000,C
740,"GROC03","Grochowska",52.3997552200,16.8760196800,A
1521,"RODA01","Rodawska",52.3633881200,16.9964427400,A
2606,"KDNIE01","Kórnik/Pl. Niepodległości",52.2478430300,17.0882067500,C
215,"PK41","Piaśnicka/Kurlandzka",52.3850783790,16.9874179664,A
642,"KOPC02","Kopciuszka",52.4126148200,16.8391197900,A
127,"PLWI41","Pl. Wielkopolski",52.4103158800,16.9310187000,A
1039,"KOZM02","Koźmińska",52.3690193500,16.8768203300,A
1168,"GNIE01","Gnieźnieńska",52.4236887200,16.9884845700,A
107,"KOSI71","Kosińskiego",52.3893013500,16.9182392900,A
1050,"BEDZ02","Będzińska",52.3613977000,16.8897742200,A
1913,"SOSAN01","Sobota/Sanktuarium",52.5225534100,16.7978945500,B
80,"BULG41","Bułgarska Enea Stadion",52.3957224800,16.8632981200,A
2395,"SDPOL01","Swarzędz/Polna",52.4084140000,17.0841950000,B
3546,"KOKSW06","Komorniki/Ks.Wawrzyniaka",52.3477710000,16.8023330000,B
1720,"NIED01","Niedziałkowskiego",52.3983500500,16.9185236700,A
3785,"PSPLD01","Prusinowo/Południe",52.1921260900,17.1306516700,C
2269,"KYBRZ02","Kliny/Brzozowa",52.4898439700,17.0600334800,C
1973,"BTPOR01","Batorowo/Poranek",52.4219326200,16.7396233700,C
1390,"STAR21","Starołęka PKM",52.3663590000,16.9300144000,A
453,"BRON02","Bronisza",52.4535140500,16.9477138700,A
1994,"SIDZI01","Sierosław/Działki",52.4016946000,16.6657545600,C
705,"ZKBUK02","Zakrzewo/Bukowska",52.4062222900,16.7194696000,C
2863,"GWTRU02","Gowarzewo/Truskawkowa",52.3669086500,17.1422413300,B
741,"GROC04","Grochowska",52.3998923500,16.8763777500,A
3644,"KUWI02","Kurlandzka Wiadukt",52.3817347512,16.9788585797,A
3844,"LUWSC04","Luboń/Wschodnia ",52.3432873797,16.8852661126,B
1707,"PAWI01","Park Wilsona",52.3977946000,16.9006677700,A
2610,"KDBIE01","Kórnik/Bnin Armii Krajowej",52.2354522900,17.0942403900,C
684,"DKKAS01","Dąbrówka/Kasztanowa",52.3774399400,16.7428272300,C
168,"PLWL42","Pl. Wiosny Ludów",52.4051500000,16.9314500000,A
962,"KOWIR01","Komorniki/Wirowska",52.3405100000,16.8380600000,B
1295,"BRDSZ02","Borówiec/Deszczowa",52.2806034900,17.0379864300,B
2347,"SDKOS01","Swarzędz/Os. Kościuszkowców",52.4210660000,17.0809150000,B
3158,"OSTY01","Os. Tysiąclecia",52.3921770000,16.9720450000,A
1523,"URSZ02","Urszulanek",52.3653086800,16.9816911300,A
4264,"WIPOD02","Wiry/Podleśna",52.3086900000,16.8713100000,B
880,"PULIB01","Puszczykowo/Libelta",52.2745733600,16.8581409100,C
2574,"PVOKR01","Pólko/Okrężna",52.5242041571,16.4611780134,C
2016,"WLKE02","Wielkie",52.4650515927,16.7594136120,B
3301,"GRDLI02","Góra/Długa I",52.4829605800,16.6444787000,C
558,"KONT02","Kontryma",52.4458905100,16.8570232100,A
4136,"BEOSR02","Biernatki/Ośrodek",52.2213135437,17.1111453779,C
2354,"TPLIC02","Tarnowo Pdg/Liceum",52.4613648400,16.6511556000,C
695,"DOKOS02","Dopiewo/Kościół",52.3581242100,16.6767218800,C
2038,"TPNOW02","Tarnowo Pdg/Nowa",52.4627828000,16.6558864200,C
833,"HEWI02","Hetmańska Wiadukt",52.3821631100,16.9286317900,A
854,"DNKLU02","Dymaczewo Nowe/Klub",52.2289911400,16.7578363900,C
561,"STST04","Stary Strzeszyn",52.4518608100,16.8488594500,A
2335,"XOSZK02","Kobylnica/Szkoła",52.4473950000,17.0796440000,B
4410,"PLPOG02","Plewiska/Os. Pogodne",52.3628488655,16.8113307200,B
990,"LUCME01","Luboń/Cmentarz",52.3489900000,16.8505940000,B
1183,"JAASF01","Janikowo/Asfaltowa",52.4406482262,17.0278094174,B
500,"WLOA02","Włościańska",52.4441993600,16.9133433500,A
370,"OSMA02","Os. Marysieńki",52.4619896300,16.9035075400,A
1179,"PRZA02","Prząśniczki",52.4338584900,17.0081972900,A
4395,"BIEA01","Bielicowa",52.4491711448,16.9614889275,A
2694,"CNLAW01","Czmoniec/Lawendowa",52.1870901849,17.0089787665,C
1737,"PLZCH01","Plewiska/Zachodnia",52.3694219400,16.8211310500,B
4347,"SSPAZ01","Środa Wielkopolska/20 Października",52.2251034575,17.2767547543,C
737,"DRZE02","Drzewieckiego",52.3965305400,16.8671192400,A
4368,"SYHUB01","Skrzynki/Św. Huberta",52.2621895414,17.0741038938,C
3995,"NIES04","Niestachowska",52.4198605125,16.8948290137,A
469,"ESTO02","Estońska",52.4425768100,16.9375356900,A
2255,"KXRSP01","Komorniki gm.Kleszczewo/RSP",52.3326259500,17.1111493900,B
689,"DPDOP02","Dopiewiec/",52.3599654400,16.7087657600,C
1117,"WYLO01","Wyłom",52.4332335800,16.9206322300,A
1857,"CRPRZ01","Cerekwica/Przybrodzka",52.5187700000,16.6908970000,B
1655,"TERM02","Termalna",52.4094559300,16.9730751400,A
4201,"TPTUR01","Tarnowo Pdg/Turyńska",52.4777710000,16.6619510000,C
908,"LUPAR02","Luboń/Parkowa",52.3338688062,16.8758507872,B
1703,"JUNI41","Junikowo",52.3836600000,16.8338300000,A
51,"POLA41","Połabska",52.4352225400,16.9319816600,A
1095,"WYSP01","Wyspiańskiego",52.3983249400,16.9001994500,A
1380,"SWAK02","Św. Antoniego Kościół",52.3641264900,16.9321579200,A
2043,"RUNOW01","Rumianek/Nowa I",52.4629465300,16.6376637100,C
2504,"RASAD01","Rabowice/Średzka",52.3877870000,17.0965760000,C
181,"ORZE41","Os. Rzeczypospolitej",52.3853846900,16.9448386200,A
2485,"BGLIG01","Bogucin/Ligowiec",52.4377110000,17.0365700000,B
974,"LUSZN02","Luboń/Szkolna",52.3427371160,16.8676160668,B
2323,"KVSKR01","Krzyżowniki/Boisko",52.3065438100,17.1315586200,B
2547,"TULES03","Tulce/Leśna",52.3447680000,17.0739390000,B
211,"OSLE41","Os. Lecha",52.3898114100,16.9776571100,A
2241,"KLSZK01","Kleszczewo/Szkoła II",52.3360707600,17.1658086900,B
4409,"LUMAG02","Luboń/Magazynowa",52.3309453927,16.9020897349,B
2957,"KOKLB01","Komorniki/Kolumba",52.3477701100,16.7964773100,B
631,"BUPO02","Bułgarska/Polska",52.4117817500,16.8691817400,A
2189,"OWPKM01","Owińska/PKM",52.5119126300,16.9871035600,C
320,"SZKL02","Szklarniowa",52.4771069700,16.9062235400,A
802,"RKAP06","Rondo Kaponiera",52.4066642200,16.9133768600,A
2209,"KZLIP02","Koziegłowy/Lipowa",52.4555496900,16.9844963200,B
513,"STKA01","Strzeszyńska",52.4437867700,16.9033139800,A
2456,"SGSOK01","Sokolniki Gwiazdowskie/Sokolnicka",52.4092450000,17.1672800000,C
142,"TERM42","Termalna",52.4091574800,16.9721856000,A
1427,"AWF02","AWF",52.3997468000,16.9359215600,A
56,"PIAT41","Piątkowska",52.4415302943,16.9112689393,A
2444,"SEMIO02","Siekierki Wielkie/Miodowa",52.3871070000,17.1599190000,C
2827,"LUPOL01","Luboń/Polna",52.3217137172,16.8736666678,B
1044,"OKUL01","Okulickiego",52.3599960000,16.8807681800,A
4372,"KDRAD02","Kórnik/Bnin Radosna",52.2280067288,17.0796527376,C
1196,"KZSZK02","Koziegłowy/Szkoła",52.4455440000,16.9910140000,B
2643,"BEJAR01","Biernatki/Jarzębinowa",52.2142339900,17.1168193700,C
69,"RONJ73","Rondo Nowaka-Jeziorańskiego",52.4033902600,16.8889925700,A
1385,"ZEGL02","Żeglarska",52.3569383400,16.9240614600,A
1356,"TARN01","Tarnobrzeska",52.3459755700,16.9185824100,A
